$GPGGA,,,,,,0,00,99.99,,,,,,*48^M
$GPGGA,,,,,,0,00,99.99,,,,,,*48^M
$GPGGA,112940.00,,,,,0,00,99.99,,,,,,*62^M
$GPGGA,112955.00,,,,,0,00,99.99,,,,,,*65^M
$GPGGA,113011.00,5215.09171,N,00005.55175,W,1,11,0.91,69.0,M,45.8,M,,*78
$GPGGA,113021.00,5215.10445,N,00005.54857,W,1,11,0.85,123.7,M,45.8,M,,*44
$GPGGA,113031.00,5215.12204,N,00005.55444,W,1,11,0.85,186.0,M,45.8,M,,*43
$GPGGA,113041.00,5215.14468,N,00005.56176,W,1,11,1.01,262.2,M,45.8,M,,*4F
$GPGGA,113051.00,5215.15491,N,00005.56456,W,1,11,0.85,343.7,M,45.8,M,,*44
$GPGGA,113101.00,5215.15284,N,00005.57628,W,1,11,0.85,407.6,M,45.8,M,,*4E
$GPGGA,113111.00,5215.15645,N,00005.57139,W,1,11,0.91,462.5,M,45.8,M,,*44
$GPGGA,113121.00,5215.17959,N,00005.56735,W,1,11,0.85,521.4,M,45.8,M,,*4E
$GPGGA,113131.00,5215.20538,N,00005.55299,W,1,11,0.86,580.7,M,45.8,M,,*4B
$GPGGA,113141.00,5215.22498,N,00005.54376,W,1,11,0.86,634.4,M,45.8,M,,*4B
$GPGGA,113151.00,5215.24927,N,00005.50583,W,1,11,0.86,691.3,M,45.8,M,,*45
$GPGGA,113201.00,5215.28233,N,00005.50321,W,1,11,0.91,745.9,M,45.8,M,,*4B
$GPGGA,113211.00,5215.29678,N,00005.49712,W,1,11,0.86,801.1,M,45.8,M,,*4D
$GPGGA,113221.00,5215.31403,N,00005.47418,W,1,11,0.86,855.2,M,45.8,M,,*4C
$GPGGA,113231.00,5215.32596,N,00005.46584,W,1,11,0.86,906.6,M,45.8,M,,*45
$GPGGA,113241.00,5215.33886,N,00005.42538,W,1,11,0.91,952.3,M,45.8,M,,*4E
$GPGGA,113251.00,5215.35670,N,00005.40333,W,1,11,0.86,1005.4,M,45.8,M,,*7A
$GPGGA,113301.00,5215.38097,N,00005.39426,W,1,11,0.86,1053.3,M,45.8,M,,*75
$GPGGA,113311.00,5215.40568,N,00005.37646,W,1,11,0.86,1102.8,M,45.8,M,,*7A
$GPGGA,113321.00,5215.42431,N,00005.36688,W,1,11,0.86,1155.3,M,45.8,M,,*7C
$GPGGA,113331.00,5215.46412,N,00005.33104,W,1,11,0.86,1202.2,M,45.8,M,,*7E
$GPGGA,113341.00,5215.48203,N,00005.28531,W,1,11,0.86,1245.4,M,45.8,M,,*7C
$GPGGA,113351.00,5215.51127,N,00005.26372,W,1,11,0.86,1296.4,M,45.8,M,,*71
$GPGGA,113401.00,5215.55176,N,00005.22846,W,1,11,0.86,1342.3,M,45.8,M,,*74
$GPGGA,113411.00,5215.58372,N,00005.20439,W,1,11,0.86,1393.3,M,45.8,M,,*74
$GPGGA,113421.00,5215.60311,N,00005.16523,W,1,11,0.86,1451.2,M,45.8,M,,*7E
$GPGGA,113431.00,5215.63588,N,00005.13057,W,1,11,0.99,1504.1,M,45.8,M,,*75
$GPGGA,113441.00,5215.66000,N,00005.11606,W,1,11,0.87,1553.7,M,45.8,M,,*79
$GPGGA,113451.00,5215.67878,N,00005.09110,W,1,11,0.90,1601.5,M,45.8,M,,*77
$GPGGA,113501.00,5215.69832,N,00005.07409,W,1,11,0.91,1650.8,M,45.8,M,,*78
$GPGGA,113511.00,5215.72993,N,00005.05790,W,1,11,0.91,1702.1,M,45.8,M,,*77
$GPGGA,113521.00,5215.76122,N,00005.03775,W,1,11,0.91,1755.7,M,45.8,M,,*7B
$GPGGA,113531.00,5215.80163,N,00005.02582,W,1,11,0.91,1814.5,M,45.8,M,,*75
$GPGGA,113541.00,5215.83177,N,00005.02143,W,1,11,0.91,1865.4,M,45.8,M,,*7A
$GPGGA,113551.00,5215.87261,N,00004.99841,W,1,11,0.91,1909.7,M,45.8,M,,*7B
$GPGGA,113601.00,5215.91884,N,00004.99086,W,1,11,0.91,1956.7,M,45.8,M,,*72
$GPGGA,113611.00,5215.96684,N,00004.96468,W,1,11,0.91,2004.3,M,45.8,M,,*78
$GPGGA,113621.00,5215.99255,N,00004.95216,W,1,11,0.91,2050.9,M,45.8,M,,*7B
$GPGGA,113631.00,5216.01012,N,00004.92539,W,1,11,0.91,2094.3,M,45.8,M,,*76
$GPGGA,113641.00,5216.05216,N,00004.90426,W,1,11,0.91,2140.3,M,45.8,M,,*76
$GPGGA,113651.00,5216.08936,N,00004.88801,W,1,11,0.91,2190.9,M,45.8,M,,*74
$GPGGA,113701.00,5216.12471,N,00004.88616,W,1,10,0.91,2247.7,M,45.8,M,,*7B
$GPGGA,113711.00,5216.17268,N,00004.87055,W,1,10,0.91,2294.1,M,45.8,M,,*77
$GPGGA,113721.00,5216.21146,N,00004.84050,W,1,10,0.91,2336.4,M,45.8,M,,*74
$GPGGA,113731.00,5216.23772,N,00004.83419,W,1,10,0.91,2389.9,M,45.8,M,,*71
$GPGGA,113741.00,5216.28144,N,00004.83961,W,1,10,0.91,2440.8,M,45.8,M,,*7F
$GPGGA,113751.00,5216.32066,N,00004.82846,W,1,10,0.91,2504.8,M,45.8,M,,*70
$GPGGA,113801.00,5216.36454,N,00004.82866,W,1,10,0.91,2562.3,M,45.8,M,,*72
$GPGGA,113811.00,5216.40657,N,00004.82316,W,1,10,0.91,2627.4,M,45.8,M,,*7A
$GPGGA,113821.00,5216.46043,N,00004.81571,W,1,10,0.91,2672.9,M,45.8,M,,*75
$GPGGA,113831.00,5216.48557,N,00004.81142,W,1,10,0.91,2714.6,M,45.8,M,,*70
$GPGGA,113841.00,5216.50817,N,00004.80797,W,1,10,0.91,2764.3,M,45.8,M,,*7A
$GPGGA,113851.00,5216.53038,N,00004.76551,W,1,10,0.92,2815.8,M,45.8,M,,*7D
$GPGGA,113901.00,5216.55650,N,00004.76048,W,1,10,0.92,2864.2,M,45.8,M,,*76
$GPGGA,113911.00,5216.59780,N,00004.75414,W,1,10,0.92,2909.3,M,45.8,M,,*72
$GPGGA,113921.00,5216.64725,N,00004.75905,W,1,10,0.92,2950.4,M,45.8,M,,*76
$GPGGA,113931.00,5216.69836,N,00004.74250,W,1,10,0.92,2997.1,M,45.8,M,,*73
$GPGGA,113941.00,5216.73505,N,00004.73482,W,1,10,0.92,3059.3,M,45.8,M,,*74
$GPGGA,113951.00,5216.75220,N,00004.71230,W,1,10,0.92,3107.8,M,45.8,M,,*7F
$GPGGA,114001.00,5216.77790,N,00004.73694,W,1,10,0.92,3154.4,M,45.8,M,,*7A
$GPGGA,114011.00,5216.79117,N,00004.72849,W,1,10,0.92,3204.3,M,45.8,M,,*72
$GPGGA,114021.00,5216.81825,N,00004.75126,W,1,10,0.92,3246.4,M,45.8,M,,*78
$GPGGA,114031.00,5216.84682,N,00004.78130,W,1,10,0.92,3291.6,M,45.8,M,,*7D
$GPGGA,114041.00,5216.89063,N,00004.79741,W,1,10,0.92,3342.1,M,45.8,M,,*77
$GPGGA,114051.00,5216.91775,N,00004.81825,W,1,10,0.92,3390.3,M,45.8,M,,*78
$GPGGA,114101.00,5216.95685,N,00004.80118,W,1,10,0.92,3437.0,M,45.8,M,,*79
$GPGGA,114111.00,5216.99844,N,00004.80774,W,1,10,0.92,3488.5,M,45.8,M,,*7A
$GPGGA,114121.00,5217.03516,N,00004.77932,W,1,10,0.92,3534.7,M,45.8,M,,*71
$GPGGA,114131.00,5217.08488,N,00004.75780,W,1,10,0.92,3577.9,M,45.8,M,,*71
$GPGGA,114141.00,5217.11402,N,00004.73424,W,1,10,0.92,3624.1,M,45.8,M,,*7A
$GPGGA,114151.00,5217.15728,N,00004.72706,W,1,10,0.92,3673.1,M,45.8,M,,*74
$GPGGA,114201.00,5217.18407,N,00004.71357,W,1,10,0.92,3727.2,M,45.8,M,,*71
$GPGGA,114211.00,5217.21305,N,00004.65728,W,1,10,0.92,3773.8,M,45.8,M,,*7D
$GPGGA,114221.00,5217.23145,N,00004.61350,W,1,10,0.92,3821.8,M,45.8,M,,*7D
$GPGGA,114231.00,5217.25846,N,00004.60338,W,1,10,0.92,3867.4,M,45.8,M,,*71
$GPGGA,114241.00,5217.28581,N,00004.59115,W,1,10,0.92,3907.7,M,45.8,M,,*7E
$GPGGA,114251.00,5217.31778,N,00004.54936,W,1,10,0.92,3955.8,M,45.8,M,,*7F
$GPGGA,114301.00,5217.36549,N,00004.52208,W,1,10,0.96,4005.2,M,45.8,M,,*79
$GPGGA,114311.00,5217.39877,N,00004.48864,W,1,10,0.93,4052.0,M,45.8,M,,*79
$GPGGA,114321.00,5217.45673,N,00004.46624,W,1,10,0.93,4094.2,M,45.8,M,,*77
$GPGGA,114331.00,5217.51248,N,00004.44476,W,1,10,0.93,4135.3,M,45.8,M,,*73
$GPGGA,114341.00,5217.54985,N,00004.43489,W,1,10,0.93,4184.4,M,45.8,M,,*71
$GPGGA,114351.00,5217.60101,N,00004.40088,W,1,10,0.93,4234.7,M,45.8,M,,*7E
$GPGGA,114401.00,5217.65331,N,00004.36132,W,1,10,0.93,4284.8,M,45.8,M,,*7D
$GPGGA,114411.00,5217.68976,N,00004.33340,W,1,10,0.93,4341.3,M,45.8,M,,*79
$GPGGA,114421.00,5217.74329,N,00004.30937,W,1,10,0.93,4391.4,M,45.8,M,,*74
$GPGGA,114431.00,5217.78827,N,00004.30289,W,1,10,0.93,4440.9,M,45.8,M,,*74
$GPGGA,114441.00,5217.84800,N,00004.27156,W,1,10,0.93,4494.6,M,45.8,M,,*74
$GPGGA,114451.00,5217.90674,N,00004.23633,W,1,10,0.93,4557.6,M,45.8,M,,*73
$GPGGA,114501.00,5217.94354,N,00004.19502,W,1,10,0.93,4607.6,M,45.8,M,,*7A
$GPGGA,114511.00,5218.00139,N,00004.17934,W,1,10,0.93,4650.7,M,45.8,M,,*74
$GPGGA,114521.00,5218.04891,N,00004.13352,W,1,10,0.93,4705.2,M,45.8,M,,*72
$GPGGA,114531.00,5218.10032,N,00004.09913,W,1,10,0.93,4751.8,M,45.8,M,,*78
$GPGGA,114541.00,5218.14197,N,00004.04601,W,1,10,0.93,4806.2,M,45.8,M,,*73
$GPGGA,114551.00,5218.20955,N,00003.98731,W,1,10,0.93,4857.2,M,45.8,M,,*77
$GPGGA,114601.00,5218.28924,N,00003.94004,W,1,10,0.93,4904.0,M,45.8,M,,*77
$GPGGA,114611.00,5218.34798,N,00003.88815,W,1,10,0.93,4966.5,M,45.8,M,,*76
$GPGGA,114621.00,5218.40178,N,00003.82795,W,1,10,0.93,5027.6,M,45.8,M,,*7D
$GPGGA,114631.00,5218.45037,N,00003.75815,W,1,10,0.93,5086.6,M,45.8,M,,*77
$GPGGA,114641.00,5218.52561,N,00003.70948,W,1,10,0.93,5135.9,M,45.8,M,,*7A
$GPGGA,114651.00,5218.59458,N,00003.64912,W,1,10,0.93,5188.8,M,45.8,M,,*76
$GPGGA,114701.00,5218.64907,N,00003.61292,W,1,10,0.93,5239.7,M,45.8,M,,*7B
$GPGGA,114711.00,5218.70306,N,00003.55311,W,1,10,0.93,5286.4,M,45.8,M,,*7E
$GPGGA,114721.00,5218.75466,N,00003.51020,W,1,10,0.97,5339.1,M,45.8,M,,*78
$GPGGA,114731.00,5218.79034,N,00003.43360,W,1,10,0.93,5390.0,M,45.8,M,,*74
$GPGGA,114741.00,5218.83432,N,00003.37941,W,1,10,0.93,5447.1,M,45.8,M,,*72
$GPGGA,114751.00,5218.88422,N,00003.28376,W,1,10,0.93,5494.8,M,45.8,M,,*7E
$GPGGA,114801.00,5218.92490,N,00003.20678,W,1,10,0.93,5550.1,M,45.8,M,,*75
$GPGGA,114811.00,5218.96461,N,00003.12521,W,1,10,0.93,5604.3,M,45.8,M,,*70
$GPGGA,114821.00,5219.02251,N,00003.05903,W,1,10,0.93,5658.5,M,45.8,M,,*7F
$GPGGA,114831.00,5219.07595,N,00002.98551,W,1,10,0.93,5720.5,M,45.8,M,,*74
$GPGGA,114841.00,5219.13294,N,00002.89313,W,1,10,0.93,5766.4,M,45.8,M,,*73
$GPGGA,114851.00,5219.17712,N,00002.82038,W,1,10,0.94,5816.4,M,45.8,M,,*73
$GPGGA,114901.00,5219.23926,N,00002.71049,W,1,10,0.94,5875.8,M,45.7,M,,*75
$GPGGA,114911.00,5219.31244,N,00002.60651,W,1,10,0.94,5926.8,M,45.7,M,,*70
$GPGGA,114921.00,5219.37299,N,00002.53415,W,1,10,0.94,5978.8,M,45.7,M,,*7C
$GPGGA,114931.00,5219.43474,N,00002.41747,W,1,10,0.94,6030.6,M,45.7,M,,*74
$GPGGA,114941.00,5219.50520,N,00002.32959,W,1,10,1.07,6077.7,M,45.7,M,,*7D
$GPGGA,114951.00,5219.57076,N,00002.23813,W,1,10,0.94,6132.4,M,45.7,M,,*7A
$GPGGA,115001.00,5219.63127,N,00002.12352,W,1,10,0.94,6188.6,M,45.7,M,,*7A
$GPGGA,115011.00,5219.68736,N,00002.02609,W,1,10,0.94,6236.4,M,45.7,M,,*78
$GPGGA,115021.00,5219.74401,N,00001.92304,W,1,10,0.94,6294.5,M,45.7,M,,*7A
$GPGGA,115031.00,5219.80538,N,00001.84639,W,1,10,0.94,6347.9,M,45.7,M,,*74
$GPGGA,115041.00,5219.86155,N,00001.77542,W,1,10,0.94,6405.2,M,45.7,M,,*73
$GPGGA,115051.00,5219.91881,N,00001.65858,W,1,10,0.99,6456.9,M,45.7,M,,*71
$GPGGA,115101.00,5219.96623,N,00001.56495,W,1,10,0.94,6519.9,M,45.7,M,,*7E
$GPGGA,115111.00,5220.01194,N,00001.48241,W,1,10,0.94,6569.2,M,45.7,M,,*7C
$GPGGA,115121.00,5220.07449,N,00001.40599,W,1,10,0.94,6620.1,M,45.7,M,,*7B
$GPGGA,115131.00,5220.13121,N,00001.34569,W,1,10,0.94,6673.3,M,45.7,M,,*7C
$GPGGA,115141.00,5220.18709,N,00001.28042,W,1,10,0.94,6719.4,M,45.7,M,,*77
$GPGGA,115151.00,5220.24261,N,00001.21407,W,1,10,0.94,6772.7,M,45.7,M,,*70
$GPGGA,115201.00,5220.29934,N,00001.11212,W,1,10,0.94,6838.6,M,45.7,M,,*71
$GPGGA,115211.00,5220.34899,N,00001.02529,W,1,10,0.94,6890.9,M,45.7,M,,*7A
$GPGGA,115221.00,5220.40378,N,00000.91444,W,1,10,0.94,6942.0,M,45.7,M,,*78
$GPGGA,115231.00,5220.46281,N,00000.82468,W,1,10,0.94,6989.4,M,45.7,M,,*77
$GPGGA,115241.00,5220.52467,N,00000.74876,W,1,10,0.94,7046.2,M,45.7,M,,*7C
$GPGGA,115251.00,5220.57950,N,00000.65687,W,1,10,0.94,7100.6,M,45.7,M,,*76
$GPGGA,115301.00,5220.64803,N,00000.57393,W,1,10,0.94,7157.2,M,45.7,M,,*72
$GPGGA,115311.00,5220.71547,N,00000.49491,W,1,10,0.94,7204.7,M,45.7,M,,*70
$GPGGA,115321.00,5220.76356,N,00000.39210,W,1,10,0.94,7251.6,M,45.7,M,,*7B
$GPGGA,115331.00,5220.81436,N,00000.31852,W,1,10,0.94,7298.5,M,45.7,M,,*71
$GPGGA,115341.00,5220.86525,N,00000.22349,W,1,11,0.94,7353.1,M,45.7,M,,*72
$GPGGA,115351.00,5220.91765,N,00000.12485,W,1,11,0.96,7399.6,M,45.7,M,,*74
$GPGGA,115401.00,5220.96119,N,00000.03862,W,1,11,0.94,7453.2,M,45.7,M,,*7E
$GPGGA,115411.00,5221.01282,N,00000.04741,E,1,11,0.94,7500.6,M,45.7,M,,*69
$GPGGA,115421.00,5221.05435,N,00000.14344,E,1,11,0.85,7553.2,M,45.7,M,,*66
$GPGGA,115431.00,5221.10844,N,00000.26476,E,1,11,0.85,7597.7,M,45.7,M,,*63
$GPGGA,115441.00,5221.14884,N,00000.37073,E,1,11,0.85,7641.1,M,45.7,M,,*63
$GPGGA,115451.00,5221.19686,N,00000.45109,E,1,11,0.85,7697.3,M,45.7,M,,*63
$GPGGA,115501.00,5221.23874,N,00000.51599,E,1,11,0.85,7738.6,M,45.7,M,,*64
$GPGGA,115511.00,5221.29254,N,00000.60100,E,1,11,0.85,7791.5,M,45.7,M,,*61
$GPGGA,115521.00,5221.33701,N,00000.70452,E,1,11,0.85,7834.1,M,45.7,M,,*6B
$GPGGA,115531.00,5221.39312,N,00000.78978,E,1,11,0.92,7881.2,M,45.7,M,,*60
$GPGGA,115541.00,5221.42926,N,00000.87447,E,1,11,0.85,7947.8,M,45.7,M,,*60
$GPGGA,115551.00,5221.45626,N,00000.92827,E,1,11,0.85,7998.2,M,45.7,M,,*6F
$GPGGA,115601.00,5221.48242,N,00000.97181,E,1,11,0.85,8050.0,M,45.7,M,,*62
$GPGGA,115611.00,5221.51144,N,00001.02782,E,1,11,0.85,8095.7,M,45.7,M,,*68
$GPGGA,115621.00,5221.53291,N,00001.06352,E,1,11,0.85,8145.0,M,45.7,M,,*64
$GPGGA,115631.00,5221.55890,N,00001.10483,E,1,11,1.09,8198.0,M,45.7,M,,*61
$GPGGA,115641.00,5221.58594,N,00001.12239,E,1,11,0.85,8249.0,M,45.7,M,,*6D
$GPGGA,115651.00,5221.60780,N,00001.15932,E,1,11,0.85,8295.8,M,45.7,M,,*6E
$GPGGA,115701.00,5221.65031,N,00001.17144,E,1,11,0.85,8345.0,M,45.7,M,,*6D
$GPGGA,115711.00,5221.67941,N,00001.19868,E,1,11,0.85,8400.4,M,45.7,M,,*6B
$GPGGA,115721.00,5221.72293,N,00001.23711,E,1,11,0.85,8456.3,M,45.7,M,,*64
$GPGGA,115731.00,5221.75958,N,00001.23497,E,1,11,0.85,8504.7,M,45.7,M,,*61
$GPGGA,115741.00,5221.79302,N,00001.26800,E,1,11,0.85,8547.5,M,45.7,M,,*6D
$GPGGA,115751.00,5221.81790,N,00001.27759,E,1,11,0.85,8602.2,M,45.7,M,,*63
$GPGGA,115801.00,5221.83944,N,00001.30760,E,1,11,0.85,8657.0,M,45.7,M,,*62
$GPGGA,115811.00,5221.87652,N,00001.30206,E,1,11,0.85,8711.2,M,45.7,M,,*6B
$GPGGA,115821.00,5221.89198,N,00001.32796,E,1,11,0.85,8758.0,M,45.7,M,,*66
$GPGGA,115831.00,5221.92486,N,00001.33940,E,1,11,0.85,8805.8,M,45.7,M,,*6C
$GPGGA,115841.00,5221.95304,N,00001.34095,E,1,11,0.85,8864.0,M,45.7,M,,*68
$GPGGA,115851.00,5221.98516,N,00001.38887,E,1,11,0.85,8918.8,M,45.7,M,,*64
$GPGGA,115901.00,5221.99944,N,00001.43238,E,1,11,0.85,8959.9,M,45.7,M,,*6C
$GPGGA,115911.00,5222.02368,N,00001.46504,E,1,11,0.93,9002.2,M,45.7,M,,*6F
$GPGGA,115921.00,5222.04441,N,00001.50471,E,1,11,0.85,9047.3,M,45.7,M,,*65
$GPGGA,115931.00,5222.07137,N,00001.54873,E,1,11,0.85,9095.4,M,45.7,M,,*61
$GPGGA,115941.00,5222.09559,N,00001.58003,E,1,11,0.85,9139.1,M,45.7,M,,*65
$GPGGA,115951.00,5222.12020,N,00001.62117,E,1,11,0.85,9191.6,M,45.7,M,,*6D
$GPGGA,120001.00,5222.14315,N,00001.65680,E,1,11,0.85,9239.7,M,45.7,M,,*6A
$GPGGA,120011.00,5222.16713,N,00001.70134,E,1,11,0.89,9290.7,M,45.7,M,,*68
$GPGGA,120021.00,5222.19436,N,00001.71683,E,1,11,0.85,9345.0,M,45.7,M,,*68
$GPGGA,120031.00,5222.21991,N,00001.74575,E,1,11,0.85,9394.4,M,45.7,M,,*65
$GPGGA,120041.00,5222.25033,N,00001.78612,E,1,11,0.85,9443.4,M,45.7,M,,*64
$GPGGA,120051.00,5222.28460,N,00001.81034,E,1,11,0.87,9497.4,M,45.7,M,,*65
$GPGGA,120101.00,5222.31281,N,00001.85044,E,1,11,0.85,9554.1,M,45.7,M,,*6A
$GPGGA,120111.00,5222.33318,N,00001.87549,E,1,11,0.91,9612.0,M,45.7,M,,*67
$GPGGA,120121.00,5222.34861,N,00001.94164,E,1,11,0.85,9660.5,M,45.7,M,,*6A
$GPGGA,120131.00,5222.35393,N,00001.99418,E,1,11,0.85,9712.1,M,45.7,M,,*6F
$GPGGA,120141.00,5222.35450,N,00002.04941,E,1,11,0.85,9771.0,M,45.7,M,,*62
$GPGGA,120151.00,5222.34134,N,00002.11756,E,1,11,0.85,9829.8,M,45.7,M,,*63
$GPGGA,120201.00,5222.32977,N,00002.17100,E,1,11,0.85,9891.0,M,45.7,M,,*64
$GPGGA,120211.00,5222.30992,N,00002.24102,E,1,11,0.85,9958.0,M,45.7,M,,*6A
$GPGGA,120221.00,5222.29013,N,00002.30491,E,1,11,0.85,10010.9,M,45.7,M,,*5F
$GPGGA,120231.00,5222.28270,N,00002.37169,E,1,11,0.85,10062.9,M,45.7,M,,*58
$GPGGA,120241.00,5222.27159,N,00002.42243,E,1,11,0.85,10114.5,M,45.7,M,,*5D
$GPGGA,120251.00,5222.24901,N,00002.46759,E,1,11,0.85,10180.2,M,45.7,M,,*5A
$GPGGA,120301.00,5222.23619,N,00002.48420,E,1,11,0.85,10237.2,M,45.7,M,,*53
$GPGGA,120311.00,5222.22564,N,00002.49813,E,1,11,0.85,10288.7,M,45.7,M,,*56
$GPGGA,120321.00,5222.20309,N,00002.53444,E,1,11,0.85,10343.0,M,45.7,M,,*5E
$GPGGA,120331.00,5222.17929,N,00002.57660,E,1,11,0.85,10404.1,M,45.7,M,,*56
$GPGGA,120341.00,5222.14945,N,00002.65130,E,1,11,0.85,10458.0,M,45.7,M,,*53
$GPGGA,120351.00,5222.12773,N,00002.69762,E,2,11,0.85,10507.7,M,45.7,M,,0000*5D
$GPGGA,120401.00,5222.11754,N,00002.75529,E,2,11,0.85,10556.8,M,45.7,M,,0000*52
$GPGGA,120411.00,5222.10775,N,00002.80245,E,2,11,0.88,10606.4,M,45.7,M,,0000*51
$GPGGA,120421.00,5222.09613,N,00002.86944,E,2,11,0.85,10650.8,M,45.7,M,,0000*55
$GPGGA,120431.00,5222.08612,N,00002.93880,E,1,11,0.85,10702.4,M,45.7,M,,*50
$GPGGA,120441.00,5222.07035,N,00002.98674,E,1,11,0.85,10756.2,M,45.7,M,,*52
$GPGGA,120451.00,5222.08666,N,00003.03280,E,1,11,0.85,10808.9,M,45.7,M,,*5F
$GPGGA,120501.00,5222.07146,N,00003.09061,E,1,11,0.85,10861.0,M,45.7,M,,*50
$GPGGA,120511.00,5222.06565,N,00003.16756,E,1,11,0.85,10912.3,M,45.7,M,,*5E
$GPGGA,120521.00,5222.06621,N,00003.22798,E,1,11,0.92,10972.6,M,45.7,M,,*5E
$GPGGA,120531.00,5222.06539,N,00003.28632,E,1,11,0.85,11027.0,M,45.7,M,,*56
$GPGGA,120541.00,5222.06037,N,00003.35332,E,1,11,0.85,11081.7,M,45.7,M,,*58
$GPGGA,120551.00,5222.05906,N,00003.44730,E,1,11,0.85,11131.4,M,45.7,M,,*58
$GPGGA,120601.00,5222.06499,N,00003.52628,E,1,11,0.85,11185.4,M,45.7,M,,*56
$GPGGA,120611.00,5222.06848,N,00003.62477,E,1,11,0.85,11232.5,M,45.7,M,,*52
$GPGGA,120621.00,5222.07779,N,00003.70514,E,1,11,0.93,11281.4,M,45.7,M,,*54
$GPGGA,120631.00,5222.08032,N,00003.79689,E,1,11,0.84,11325.6,M,45.7,M,,*57
$GPGGA,120641.00,5222.08573,N,00003.88762,E,1,11,0.84,11373.2,M,45.7,M,,*5D
$GPGGA,120651.00,5222.10893,N,00003.99115,E,1,11,0.84,11428.4,M,45.7,M,,*5F
$GPGGA,120701.00,5222.12056,N,00004.07573,E,1,11,0.91,11471.1,M,45.7,M,,*51
$GPGGA,120711.00,5222.13049,N,00004.17312,E,1,11,0.84,11516.2,M,45.7,M,,*58
$GPGGA,120721.00,5222.14473,N,00004.25835,E,1,11,0.84,11562.6,M,45.7,M,,*59
$GPGGA,120731.00,5222.15601,N,00004.34481,E,1,11,0.84,11611.1,M,45.7,M,,*5D
$GPGGA,120741.00,5222.17502,N,00004.44338,E,1,11,0.84,11661.7,M,45.7,M,,*5B
$GPGGA,120751.00,5222.19199,N,00004.52005,E,1,11,0.84,11708.4,M,45.7,M,,*55
$GPGGA,120801.00,5222.20975,N,00004.60649,E,1,11,0.86,11757.5,M,45.7,M,,*59
$GPGGA,120811.00,5222.22377,N,00004.69400,E,1,11,0.84,11809.0,M,45.7,M,,*57
$GPGGA,120821.00,5222.24199,N,00004.76870,E,1,11,0.84,11860.1,M,45.7,M,,*5B
$GPGGA,120831.00,5222.26181,N,00004.84892,E,1,11,0.84,11908.9,M,45.7,M,,*57
$GPGGA,120841.00,5222.28434,N,00004.92390,E,1,11,0.84,11954.3,M,45.7,M,,*58
$GPGGA,120851.00,5222.30103,N,00005.01192,E,2,11,0.84,12000.3,M,45.7,M,,0000*52
$GPGGA,120901.00,5222.32648,N,00005.09797,E,2,11,0.84,12045.5,M,45.7,M,,0000*50
$GPGGA,120911.00,5222.34568,N,00005.18153,E,2,11,0.84,12088.9,M,45.7,M,,0000*55
$GPGGA,120921.00,5222.37117,N,00005.27385,E,2,11,0.84,12132.8,M,45.7,M,,0000*5D
$GPGGA,120931.00,5222.39043,N,00005.35685,E,2,11,0.84,12177.3,M,45.7,M,,0000*5E
$GPGGA,120941.00,5222.41024,N,00005.44990,E,1,11,0.84,12222.5,M,45.7,M,,*5C
$GPGGA,120951.00,5222.43235,N,00005.52732,E,1,11,0.84,12266.7,M,45.7,M,,*5E
$GPGGA,121001.00,5222.44938,N,00005.61608,E,1,11,0.84,12308.5,M,45.7,M,,*51
$GPGGA,121011.00,5222.47908,N,00005.69912,E,1,11,0.93,12357.8,M,45.7,M,,*5D
$GPGGA,121021.00,5222.50955,N,00005.78568,E,1,11,0.84,12402.8,M,45.7,M,,*50
$GPGGA,121031.00,5222.54233,N,00005.85803,E,1,11,0.85,12444.1,M,45.7,M,,*56
$GPGGA,121041.00,5222.58356,N,00005.92906,E,1,11,0.84,12487.4,M,45.7,M,,*56
$GPGGA,121051.00,5222.61416,N,00006.00309,E,1,11,0.84,12534.1,M,45.7,M,,*5F
$GPGGA,121101.00,5222.65045,N,00006.08444,E,1,11,0.84,12579.0,M,45.7,M,,*53
$GPGGA,121111.00,5222.69081,N,00006.19359,E,1,11,0.89,12641.9,M,45.7,M,,*51
$GPGGA,121121.00,5222.71154,N,00006.27555,E,1,11,0.83,12702.8,M,45.7,M,,*58
$GPGGA,121131.00,5222.72304,N,00006.36830,E,1,11,0.83,12755.7,M,45.7,M,,*5E
$GPGGA,121141.00,5222.74349,N,00006.47998,E,1,11,0.83,12798.6,M,45.7,M,,*53
$GPGGA,121151.00,5222.76666,N,00006.61101,E,1,11,0.83,12847.1,M,45.7,M,,*5E
$GPGGA,121201.00,5222.78749,N,00006.71721,E,1,11,0.83,12890.0,M,45.7,M,,*54
$GPGGA,121211.00,5222.80438,N,00006.81120,E,1,11,0.83,12939.6,M,45.7,M,,*5B
$GPGGA,121221.00,5222.85587,N,00006.87964,E,1,11,0.83,13000.9,M,45.7,M,,*5B
$GPGGA,121231.00,5222.90151,N,00006.96448,E,1,11,0.83,13049.7,M,45.7,M,,*51
$GPGGA,121241.00,5222.94579,N,00007.01626,E,1,11,0.88,13093.8,M,45.7,M,,*5A
$GPGGA,121251.00,5222.98691,N,00007.06896,E,1,11,0.83,13139.9,M,45.7,M,,*5B
$GPGGA,121301.00,5223.02821,N,00007.13122,E,1,11,0.83,13188.4,M,45.7,M,,*5D
$GPGGA,121311.00,5223.07013,N,00007.19830,E,1,11,0.83,13235.0,M,45.7,M,,*51
$GPGGA,121321.00,5223.10759,N,00007.27492,E,1,11,0.83,13280.6,M,45.7,M,,*5C
$GPGGA,121331.00,5223.15027,N,00007.34933,E,1,11,0.83,13326.9,M,45.7,M,,*50
$GPGGA,121341.00,5223.18427,N,00007.42702,E,1,11,0.83,13374.0,M,45.7,M,,*5D
$GPGGA,121351.00,5223.22849,N,00007.51270,E,1,11,0.83,13420.9,M,45.7,M,,*5C
$GPGGA,121401.00,5223.25967,N,00007.59632,E,1,11,0.83,13468.9,M,45.7,M,,*52
$GPGGA,121411.00,5223.29124,N,00007.69019,E,1,11,0.83,13511.3,M,45.7,M,,*59
$GPGGA,121421.00,5223.32539,N,00007.77817,E,1,11,0.83,13554.3,M,45.7,M,,*50
$GPGGA,121431.00,5223.35777,N,00007.87363,E,1,11,0.83,13601.3,M,45.7,M,,*5A
$GPGGA,121441.00,5223.40102,N,00007.95937,E,1,11,0.94,13644.9,M,45.7,M,,*5E
$GPGGA,121451.00,5223.44027,N,00008.03928,E,1,11,0.83,13690.7,M,45.7,M,,*52
$GPGGA,121501.00,5223.48496,N,00008.11139,E,1,11,0.84,13735.8,M,45.7,M,,*59
$GPGGA,121511.00,5223.52505,N,00008.19106,E,1,11,0.82,13779.5,M,45.7,M,,*5F
$GPGGA,121521.00,5223.56331,N,00008.26235,E,1,11,0.82,13821.6,M,45.7,M,,*57
$GPGGA,121531.00,5223.60669,N,00008.33202,E,1,11,0.82,13860.5,M,45.7,M,,*5D
$GPGGA,121541.00,5223.63790,N,00008.41725,E,1,11,0.82,13906.4,M,45.7,M,,*5B
$GPGGA,121551.00,5223.66931,N,00008.49356,E,1,11,0.82,13950.1,M,45.7,M,,*54
$GPGGA,121601.00,5223.69462,N,00008.57884,E,1,11,0.82,13997.0,M,45.7,M,,*57
$GPGGA,121611.00,5223.72738,N,00008.64672,E,1,11,0.82,14040.3,M,45.7,M,,*50
$GPGGA,121621.00,5223.75513,N,00008.71495,E,1,11,0.82,14082.0,M,45.7,M,,*5D
$GPGGA,121631.00,5223.79041,N,00008.78205,E,1,11,0.82,14124.0,M,45.7,M,,*59
$GPGGA,121641.00,5223.81411,N,00008.84791,E,1,11,0.82,14168.2,M,45.7,M,,*59
$GPGGA,121651.00,5223.85443,N,00008.91999,E,1,11,0.87,14214.9,M,45.7,M,,*5F
$GPGGA,121701.00,5223.88444,N,00008.99747,E,1,11,0.82,14258.5,M,45.7,M,,*55
$GPGGA,121711.00,5223.91485,N,00009.06053,E,1,11,0.87,14301.4,M,45.7,M,,*5D
$GPGGA,121721.00,5223.94750,N,00009.12187,E,1,11,0.82,14345.9,M,45.7,M,,*55
$GPGGA,121731.00,5223.98232,N,00009.17616,E,1,11,0.82,14391.9,M,45.7,M,,*5A
$GPGGA,121741.00,5224.02722,N,00009.22689,E,1,11,0.82,14439.9,M,45.7,M,,*58
$GPGGA,121751.00,5224.06879,N,00009.27612,E,1,11,0.82,14483.2,M,45.7,M,,*51
$GPGGA,121801.00,5224.11127,N,00009.33217,E,1,11,0.82,14527.7,M,45.7,M,,*51
$GPGGA,121811.00,5224.15417,N,00009.39155,E,1,11,0.82,14574.2,M,45.7,M,,*5E
$GPGGA,121821.00,5224.19137,N,00009.44862,E,1,11,0.82,14620.6,M,45.7,M,,*57
$GPGGA,121831.00,5224.23440,N,00009.50604,E,1,11,0.82,14665.6,M,45.7,M,,*50
$GPGGA,121841.00,5224.26987,N,00009.55186,E,1,11,0.81,14711.6,M,45.7,M,,*5D
$GPGGA,121851.00,5224.31412,N,00009.61564,E,1,11,0.81,14756.3,M,45.7,M,,*52
$GPGGA,121901.00,5224.34950,N,00009.67443,E,1,11,0.81,14802.1,M,45.7,M,,*56
$GPGGA,121911.00,5224.38788,N,00009.75114,E,1,11,0.81,14844.9,M,45.7,M,,*5E
$GPGGA,121921.00,5224.42781,N,00009.82044,E,1,11,0.81,14891.7,M,45.7,M,,*53
$GPGGA,121931.00,5224.47259,N,00009.89418,E,1,11,0.81,14938.0,M,45.7,M,,*54
$GPGGA,121941.00,5224.51659,N,00009.95879,E,1,11,0.81,14982.0,M,45.7,M,,*57
$GPGGA,121951.00,5224.55887,N,00010.01977,E,1,11,0.81,15026.1,M,45.7,M,,*52
$GPGGA,122001.00,5224.59756,N,00010.09384,E,1,11,0.81,15071.1,M,45.7,M,,*5E
$GPGGA,122011.00,5224.64088,N,00010.16006,E,1,11,0.81,15115.7,M,45.7,M,,*57
$GPGGA,122021.00,5224.67368,N,00010.23838,E,1,11,0.81,15161.1,M,45.7,M,,*5C
$GPGGA,122031.00,5224.71183,N,00010.30873,E,1,11,0.81,15203.5,M,45.7,M,,*53
$GPGGA,122041.00,5224.74794,N,00010.37925,E,1,11,0.81,15250.1,M,45.7,M,,*56
$GPGGA,122051.00,5224.77612,N,00010.45049,E,1,11,0.81,15295.7,M,45.7,M,,*52
$GPGGA,122101.00,5224.79321,N,00010.51879,E,1,11,0.81,15339.9,M,45.7,M,,*5A
$GPGGA,122111.00,5224.80429,N,00010.57699,E,1,11,0.81,15384.3,M,45.7,M,,*58
$GPGGA,122121.00,5224.81576,N,00010.62341,E,1,11,0.81,15431.1,M,45.7,M,,*5C
$GPGGA,122131.00,5224.81719,N,00010.68724,E,1,11,0.81,15476.0,M,45.7,M,,*59
$GPGGA,122141.00,5224.82551,N,00010.74007,E,1,11,0.81,15521.1,M,45.7,M,,*5A
$GPGGA,122151.00,5224.82674,N,00010.79592,E,1,11,0.81,15567.1,M,45.7,M,,*59
$GPGGA,122201.00,5224.83710,N,00010.84661,E,1,11,0.81,15611.2,M,45.7,M,,*51
$GPGGA,122211.00,5224.83876,N,00010.89378,E,1,11,0.81,15659.9,M,45.7,M,,*58
$GPGGA,122221.00,5224.85201,N,00010.94778,E,1,11,0.80,15707.4,M,45.7,M,,*59
$GPGGA,122231.00,5224.85324,N,00011.00971,E,1,11,0.80,15755.3,M,45.7,M,,*55
$GPGGA,122241.00,5224.85715,N,00011.06728,E,1,11,0.80,15802.3,M,45.7,M,,*5D
$GPGGA,122251.00,5224.85949,N,00011.12298,E,1,11,0.80,15848.9,M,45.7,M,,*54
$GPGGA,122301.00,5224.86177,N,00011.17946,E,1,11,0.80,15895.3,M,45.7,M,,*51
$GPGGA,122311.00,5224.87110,N,00011.22714,E,1,11,0.80,15942.7,M,45.7,M,,*50
$GPGGA,122321.00,5224.88533,N,00011.27484,E,1,11,0.80,15991.4,M,45.7,M,,*5B
$GPGGA,122331.00,5224.90234,N,00011.32478,E,1,11,0.80,16038.6,M,45.7,M,,*5F
$GPGGA,122341.00,5224.91920,N,00011.39403,E,1,11,0.80,16085.2,M,45.7,M,,*52
$GPGGA,122351.00,5224.93847,N,00011.45285,E,1,11,0.80,16134.1,M,45.7,M,,*5A
$GPGGA,122401.00,5224.95026,N,00011.51927,E,1,11,0.80,16180.8,M,45.7,M,,*51
$GPGGA,122411.00,5224.96782,N,00011.57861,E,1,11,0.80,16227.7,M,45.7,M,,*5E
$GPGGA,122421.00,5224.97265,N,00011.63965,E,1,11,0.80,16272.2,M,45.7,M,,*57
$GPGGA,122431.00,5224.98331,N,00011.69908,E,1,11,0.80,16319.8,M,45.7,M,,*5E
$GPGGA,122441.00,5225.00157,N,00011.73938,E,1,11,0.80,16367.6,M,45.7,M,,*54
$GPGGA,122451.00,5225.02102,N,00011.78621,E,1,11,0.80,16414.7,M,45.7,M,,*59
$GPGGA,122501.00,5225.04305,N,00011.82925,E,1,11,0.80,16462.2,M,45.7,M,,*54
$GPGGA,122511.00,5225.05982,N,00011.88157,E,1,11,0.80,16509.3,M,45.7,M,,*5B
$GPGGA,122521.00,5225.08707,N,00011.92962,E,1,11,0.80,16556.4,M,45.7,M,,*5E
$GPGGA,122531.00,5225.10671,N,00011.98942,E,1,11,0.80,16600.8,M,45.7,M,,*52
$GPGGA,122541.00,5225.13238,N,00012.04092,E,1,11,0.82,16649.4,M,45.7,M,,*5E
$GPGGA,122551.00,5225.15527,N,00012.11984,E,1,11,0.80,16696.5,M,45.7,M,,*5B
$GPGGA,122601.00,5225.17118,N,00012.17207,E,1,11,0.80,16743.4,M,45.7,M,,*59
$GPGGA,122611.00,5225.19038,N,00012.24771,E,1,11,0.79,16793.4,M,45.7,M,,*5A
$GPGGA,122621.00,5225.19789,N,00012.32001,E,1,11,0.79,16840.0,M,45.7,M,,*56
$GPGGA,122631.00,5225.21590,N,00012.39219,E,1,11,0.79,16889.9,M,45.7,M,,*5A
$GPGGA,122641.00,5225.22453,N,00012.44248,E,1,11,0.79,16939.4,M,45.7,M,,*59
$GPGGA,122651.00,5225.22784,N,00012.49942,E,1,11,0.79,16986.9,M,45.7,M,,*54
$GPGGA,122701.00,5225.23327,N,00012.56265,E,1,11,0.79,17033.8,M,45.7,M,,*5B
$GPGGA,122711.00,5225.23545,N,00012.62051,E,1,11,0.79,17079.9,M,45.7,M,,*55
$GPGGA,122721.00,5225.23817,N,00012.67582,E,1,11,0.79,17126.5,M,45.7,M,,*55
$GPGGA,122731.00,5225.23971,N,00012.72861,E,1,11,0.79,17173.6,M,45.7,M,,*52
$GPGGA,122741.00,5225.24303,N,00012.78539,E,1,11,0.79,17221.4,M,45.7,M,,*51
$GPGGA,122751.00,5225.24395,N,00012.84761,E,1,11,0.79,17270.1,M,45.7,M,,*52
$GPGGA,122801.00,5225.24618,N,00012.90186,E,1,11,0.79,17318.3,M,45.7,M,,*5F
$GPGGA,122811.00,5225.23782,N,00012.94562,E,1,11,0.79,17367.5,M,45.7,M,,*5F
$GPGGA,122821.00,5225.24355,N,00012.98839,E,1,11,0.88,17415.7,M,45.7,M,,*54
$GPGGA,122831.00,5225.23962,N,00013.01297,E,1,11,0.79,17462.8,M,45.7,M,,*52
$GPGGA,122841.00,5225.24177,N,00013.04172,E,1,11,0.79,17507.1,M,45.7,M,,*58
$GPGGA,122851.00,5225.24371,N,00013.05183,E,1,11,0.79,17532.0,M,45.7,M,,*55
$GPGGA,122901.00,5225.23407,N,00013.05940,E,1,11,0.79,17586.7,M,45.7,M,,*5F
$GPGGA,122911.00,5225.22310,N,00013.06117,E,1,11,0.79,17641.1,M,45.7,M,,*59
$GPGGA,122921.00,5225.20551,N,00013.07856,E,1,11,0.79,17689.2,M,45.7,M,,*51
$GPGGA,122931.00,5225.18788,N,00013.08513,E,1,11,0.79,17739.8,M,45.7,M,,*5E
$GPGGA,122941.00,5225.15390,N,00013.11000,E,1,11,0.79,17788.9,M,45.7,M,,*5D
$GPGGA,122951.00,5225.12954,N,00013.12603,E,1,11,0.79,17839.1,M,45.7,M,,*52
$GPGGA,123001.00,5225.09555,N,00013.13571,E,1,11,0.79,17886.4,M,45.7,M,,*5E
$GPGGA,123011.00,5225.07565,N,00013.15136,E,1,11,0.79,17934.8,M,45.7,M,,*57
$GPGGA,123021.00,5225.05636,N,00013.15858,E,1,11,0.79,17982.9,M,45.7,M,,*5E
$GPGGA,123031.00,5225.04219,N,00013.16511,E,1,11,0.80,18031.1,M,45.7,M,,*54
$GPGGA,123041.00,5225.02758,N,00013.17034,E,1,12,0.78,18079.1,M,45.7,M,,*5E
$GPGGA,123051.00,5225.02118,N,00013.18179,E,1,12,0.87,18127.3,M,45.7,M,,*52
$GPGGA,123101.00,5224.99680,N,00013.20023,E,1,12,0.78,18173.6,M,45.7,M,,*52
$GPGGA,123111.00,5224.97676,N,00013.23477,E,1,12,0.78,18220.6,M,45.7,M,,*57
$GPGGA,123121.00,5224.95120,N,00013.24002,E,1,12,0.78,18271.4,M,45.7,M,,*55
$GPGGA,123131.00,5224.91955,N,00013.23852,E,1,12,0.78,18321.2,M,45.7,M,,*52
$GPGGA,123141.00,5224.88826,N,00013.22334,E,1,12,0.78,18370.1,M,45.7,M,,*55
$GPGGA,123151.00,5224.85865,N,00013.20748,E,1,12,0.73,18418.9,M,45.7,M,,*59
$GPGGA,123201.00,5224.83133,N,00013.18609,E,1,12,0.73,18467.7,M,45.7,M,,*5A
$GPGGA,123211.00,5224.80932,N,00013.18431,E,1,12,0.73,18518.4,M,45.7,M,,*52
$GPGGA,123221.00,5224.79425,N,00013.16844,E,1,12,0.73,18565.6,M,45.7,M,,*54
$GPGGA,123231.00,5224.77858,N,00013.16029,E,1,12,0.73,18612.0,M,45.7,M,,*5B
$GPGGA,123241.00,5224.76600,N,00013.15107,E,1,12,0.73,18660.7,M,45.7,M,,*52
$GPGGA,123251.00,5224.75904,N,00013.14396,E,1,12,0.80,18713.3,M,45.7,M,,*5D
$GPGGA,123301.00,5224.75333,N,00013.12787,E,1,12,0.75,18763.1,M,45.7,M,,*5A
$GPGGA,123311.00,5224.74466,N,00013.14855,E,1,12,0.75,18814.2,M,45.7,M,,*57
$GPGGA,123321.00,5224.73734,N,00013.15188,E,1,12,0.75,18861.4,M,45.7,M,,*5B
$GPGGA,123331.00,5224.71997,N,00013.15685,E,1,12,0.75,18910.5,M,45.7,M,,*53
$GPGGA,123341.00,5224.70337,N,00013.15363,E,1,12,0.75,18962.0,M,45.7,M,,*58
$GPGGA,123351.00,5224.68333,N,00013.15068,E,1,12,0.75,19012.9,M,45.7,M,,*5A
$GPGGA,123401.00,5224.66865,N,00013.13865,E,1,12,0.75,19063.7,M,45.7,M,,*55
$GPGGA,123411.00,5224.65029,N,00013.14584,E,1,12,0.75,19114.1,M,45.7,M,,*55
$GPGGA,123421.00,5224.64337,N,00013.14728,E,1,12,0.82,19164.1,M,45.7,M,,*50
$GPGGA,123431.00,5224.62281,N,00013.16115,E,1,12,0.75,19212.6,M,45.7,M,,*5C
$GPGGA,123441.00,5224.61340,N,00013.18615,E,1,12,0.75,19263.5,M,45.7,M,,*58
$GPGGA,123451.00,5224.58966,N,00013.19950,E,1,12,0.75,19313.5,M,45.7,M,,*54
$GPGGA,123501.00,5224.57487,N,00013.20753,E,1,12,0.75,19363.6,M,45.7,M,,*5E
$GPGGA,123511.00,5224.54579,N,00013.20584,E,1,12,0.75,19413.0,M,45.7,M,,*52
$GPGGA,123521.00,5224.52655,N,00013.19368,E,1,11,0.75,19465.5,M,45.7,M,,*53
$GPGGA,123531.00,5224.49272,N,00013.15795,E,1,11,0.75,19517.2,M,45.7,M,,*50
$GPGGA,123541.00,5224.46974,N,00013.13091,E,1,11,0.75,19563.9,M,45.7,M,,*58
$GPGGA,123551.00,5224.44929,N,00013.10755,E,1,11,0.75,19613.6,M,45.7,M,,*54
$GPGGA,123601.00,5224.44354,N,00013.08552,E,1,11,0.92,19660.0,M,45.7,M,,*55
$GPGGA,123611.00,5224.43076,N,00013.05713,E,1,11,0.75,19709.9,M,45.7,M,,*54
$GPGGA,123621.00,5224.42245,N,00013.05718,E,1,11,0.75,19760.4,M,45.7,M,,*5D
$GPGGA,123631.00,5224.41645,N,00013.05246,E,1,11,0.75,19810.4,M,45.7,M,,*5D
$GPGGA,123641.00,5224.40315,N,00013.05831,E,1,11,0.75,19862.1,M,45.7,M,,*51
$GPGGA,123651.00,5224.38745,N,00013.07686,E,1,11,0.77,19915.5,M,45.7,M,,*59
$GPGGA,123701.00,5224.37853,N,00013.09273,E,1,11,0.75,19969.1,M,45.7,M,,*57
$GPGGA,123711.00,5224.36763,N,00013.12312,E,1,11,0.75,20020.0,M,45.7,M,,*58
$GPGGA,123721.00,5224.35732,N,00013.13233,E,1,11,0.78,20073.9,M,45.7,M,,*5D
$GPGGA,123731.00,5224.34819,N,00013.15843,E,1,11,0.78,20124.7,M,45.7,M,,*5D
$GPGGA,123741.00,5224.32758,N,00013.17801,E,1,11,0.78,20178.0,M,45.7,M,,*5C
$GPGGA,123751.00,5224.29877,N,00013.21012,E,1,11,0.78,20230.7,M,45.7,M,,*52
$GPGGA,123801.00,5224.26551,N,00013.23194,E,1,11,0.78,20285.7,M,45.7,M,,*5D
$GPGGA,123811.00,5224.23168,N,00013.26679,E,1,11,0.78,20336.6,M,45.7,M,,*5E
$GPGGA,123821.00,5224.18638,N,00013.27121,E,1,11,0.78,20389.6,M,45.7,M,,*58
$GPGGA,123831.00,5224.13863,N,00013.27447,E,1,11,0.78,20440.4,M,45.7,M,,*57
$GPGGA,123841.00,5224.08664,N,00013.27172,E,1,11,0.78,20491.1,M,45.7,M,,*59
$GPGGA,123851.00,5224.03368,N,00013.28171,E,1,11,0.78,20544.2,M,45.7,M,,*5C
$GPGGA,123901.00,5223.96827,N,00013.27727,E,1,09,0.87,20597.5,M,45.7,M,,*59
$GPGGA,123911.00,5223.90833,N,00013.27578,E,1,10,0.78,20649.4,M,45.7,M,,*5A
$GPGGA,123921.00,5223.84037,N,00013.27201,E,1,10,0.78,20698.0,M,45.7,M,,*51
$GPGGA,123931.00,5223.77861,N,00013.26879,E,1,10,0.78,20749.9,M,45.7,M,,*57
$GPGGA,123941.00,5223.70837,N,00013.25868,E,1,10,0.78,20800.9,M,45.7,M,,*55
$GPGGA,123951.00,5223.64966,N,00013.23952,E,1,10,0.78,20850.9,M,45.7,M,,*5F
$GPGGA,124001.00,5223.58961,N,00013.22094,E,1,10,0.78,20904.9,M,45.7,M,,*5E
$GPGGA,124011.00,5223.54632,N,00013.20002,E,1,10,0.78,20958.2,M,45.7,M,,*55
$GPGGA,124021.00,5223.49746,N,00013.17593,E,1,10,0.78,21010.5,M,45.7,M,,*52
$GPGGA,124031.00,5223.46452,N,00013.14249,E,1,10,0.86,21060.7,M,45.7,M,,*5D
$GPGGA,124041.00,5223.43187,N,00013.10589,E,1,10,0.78,21112.1,M,45.7,M,,*5E
$GPGGA,124051.00,5223.41193,N,00013.05650,E,1,10,0.78,21163.5,M,45.7,M,,*59
$GPGGA,124101.00,5223.38242,N,00013.02254,E,1,10,0.78,21215.9,M,45.7,M,,*55
$GPGGA,124111.00,5223.35553,N,00012.98377,E,1,10,0.78,21265.5,M,45.7,M,,*57
$GPGGA,124121.00,5223.32145,N,00012.95399,E,1,10,0.78,21315.7,M,45.7,M,,*59
$GPGGA,124131.00,5223.29584,N,00012.91617,E,1,10,0.78,21367.3,M,45.7,M,,*5D
$GPGGA,124141.00,5223.25344,N,00012.88383,E,1,10,0.78,21418.9,M,45.7,M,,*59
$GPGGA,124151.00,5223.21770,N,00012.82950,E,1,10,0.78,21471.5,M,45.7,M,,*52
$GPGGA,124201.00,5223.18501,N,00012.78514,E,1,10,0.78,21523.1,M,45.7,M,,*51
$GPGGA,124211.00,5223.16054,N,00012.72442,E,1,10,0.83,21575.2,M,45.7,M,,*57
$GPGGA,124221.00,5223.12431,N,00012.67801,E,1,10,0.78,21624.9,M,45.7,M,,*50
$GPGGA,124231.00,5223.09456,N,00012.61579,E,1,10,0.78,21672.6,M,45.7,M,,*52
$GPGGA,124241.00,5223.06937,N,00012.56431,E,1,10,0.78,21722.5,M,45.7,M,,*5E
$GPGGA,124251.00,5223.05351,N,00012.49367,E,1,10,0.78,21769.3,M,45.7,M,,*55
$GPGGA,124301.00,5223.04415,N,00012.43750,E,1,10,0.82,21822.5,M,45.7,M,,*5E
$GPGGA,124311.00,5223.03932,N,00012.38355,E,1,10,0.78,21875.0,M,45.7,M,,*5F
$GPGGA,124321.00,5223.03131,N,00012.36155,E,1,10,0.78,21926.3,M,45.7,M,,*5F
$GPGGA,124331.00,5223.02358,N,00012.34177,E,1,10,0.78,21974.3,M,45.7,M,,*57
$GPGGA,124341.00,5223.01899,N,00012.34062,E,1,10,0.78,22025.9,M,45.7,M,,*54
$GPGGA,124351.00,5223.01349,N,00012.32271,E,1,10,0.78,22073.3,M,45.7,M,,*5C
$GPGGA,124401.00,5223.00671,N,00012.32967,E,1,10,0.78,22122.3,M,45.7,M,,*58
$GPGGA,124411.00,5222.99713,N,00012.31398,E,1,10,0.78,22172.3,M,45.7,M,,*51
$GPGGA,124421.00,5222.98545,N,00012.32362,E,1,10,0.78,22222.5,M,45.7,M,,*54
$GPGGA,124431.00,5222.96601,N,00012.32754,E,1,10,0.78,22273.8,M,45.7,M,,*50
$GPGGA,124441.00,5222.95277,N,00012.33883,E,1,10,0.82,22326.3,M,45.7,M,,*5A
$GPGGA,124451.00,5222.93855,N,00012.32767,E,1,10,0.78,22378.7,M,45.7,M,,*59
$GPGGA,124501.00,5222.93302,N,00012.31707,E,1,10,0.78,22430.5,M,45.7,M,,*58
$GPGGA,124511.00,5222.92506,N,00012.30483,E,1,10,0.83,22484.4,M,45.7,M,,*5E
$GPGGA,124521.00,5222.92238,N,00012.30955,E,1,10,0.78,22537.9,M,45.7,M,,*51
$GPGGA,124531.00,5222.91125,N,00012.30669,E,1,10,0.78,22591.4,M,45.7,M,,*5D
$GPGGA,124541.00,5222.90440,N,00012.32607,E,1,10,0.78,22643.9,M,45.7,M,,*56
$GPGGA,124551.00,5222.89004,N,00012.33030,E,1,10,0.78,22697.6,M,45.7,M,,*5E
$GPGGA,124601.00,5222.87399,N,00012.36013,E,1,10,0.81,22749.4,M,45.7,M,,*53
$GPGGA,124611.00,5222.84503,N,00012.37155,E,1,10,0.78,22803.3,M,45.7,M,,*56
$GPGGA,124621.00,5222.81059,N,00012.40310,E,1,10,0.86,22855.8,M,45.7,M,,*50
$GPGGA,124631.00,5222.76867,N,00012.41927,E,1,10,0.83,22909.4,M,45.7,M,,*52
$GPGGA,124641.00,5222.73561,N,00012.44005,E,1,10,0.78,22959.4,M,45.7,M,,*56
$GPGGA,124651.00,5222.69068,N,00012.45418,E,1,10,0.78,23011.2,M,45.7,M,,*5B
$GPGGA,124701.00,5222.65669,N,00012.46288,E,1,10,0.86,23063.9,M,45.7,M,,*57
$GPGGA,124711.00,5222.61777,N,00012.45218,E,1,10,0.78,23111.4,M,45.7,M,,*5E
$GPGGA,124721.00,5222.57838,N,00012.46192,E,1,10,0.78,23159.1,M,45.7,M,,*57
$GPGGA,124731.00,5222.53967,N,00012.44914,E,1,10,0.78,23214.7,M,45.7,M,,*51
$GPGGA,124741.00,5222.49615,N,00012.45754,E,1,10,0.78,23266.0,M,45.7,M,,*5E
$GPGGA,124751.00,5222.45356,N,00012.45474,E,1,10,0.78,23319.5,M,45.7,M,,*5C
$GPGGA,124801.00,5222.41573,N,00012.46552,E,1,10,0.78,23373.1,M,45.7,M,,*5D
$GPGGA,124811.00,5222.37162,N,00012.46044,E,1,10,0.78,23427.7,M,45.7,M,,*5B
$GPGGA,124821.00,5222.32792,N,00012.47909,E,1,10,0.82,23484.4,M,45.7,M,,*5A
$GPGGA,124831.00,5222.28649,N,00012.47839,E,1,10,0.78,23539.3,M,45.7,M,,*50
$GPGGA,124841.00,5222.23685,N,00012.49913,E,1,10,0.78,23592.3,M,45.7,M,,*5A
$GPGGA,124851.00,5222.19233,N,00012.51311,E,1,10,0.96,23645.8,M,45.7,M,,*58
$GPGGA,124901.00,5222.14187,N,00012.53102,E,1,10,0.78,23701.9,M,45.7,M,,*5F
$GPGGA,124911.00,5222.10106,N,00012.53245,E,1,10,0.78,23754.3,M,45.7,M,,*59
$GPGGA,124921.00,5222.05431,N,00012.53866,E,1,10,0.78,23809.3,M,45.7,M,,*53
$GPGGA,124931.00,5222.02154,N,00012.53746,E,1,10,0.78,23861.0,M,45.7,M,,*53
$GPGGA,124941.00,5221.97814,N,00012.54054,E,1,10,0.78,23915.1,M,45.7,M,,*56
$GPGGA,124951.00,5221.94992,N,00012.53720,E,1,10,0.78,23969.6,M,45.7,M,,*54
$GPGGA,125001.00,5221.91273,N,00012.53581,E,1,10,0.78,24023.2,M,45.7,M,,*55
$GPGGA,125011.00,5221.88511,N,00012.52745,E,1,10,0.78,24080.4,M,45.7,M,,*5B
$GPGGA,125021.00,5221.84936,N,00012.52775,E,1,10,0.78,24136.6,M,45.7,M,,*50
$GPGGA,125031.00,5221.82383,N,00012.52751,E,1,10,0.78,24193.5,M,45.7,M,,*59
$GPGGA,125041.00,5221.79683,N,00012.53490,E,1,10,0.79,24254.6,M,45.7,M,,*5A
$GPGGA,125051.00,5221.77621,N,00012.54053,E,1,10,0.79,24311.9,M,45.7,M,,*5E
$GPGGA,125101.00,5221.73712,N,00012.54541,E,1,10,0.79,24367.0,M,45.7,M,,*51
$GPGGA,125111.00,5221.71174,N,00012.55830,E,1,10,0.79,24427.2,M,45.7,M,,*5F
$GPGGA,125121.00,5221.67783,N,00012.56900,E,1,10,0.79,24485.4,M,45.7,M,,*5A
$GPGGA,125131.00,5221.65188,N,00012.57342,E,1,10,0.79,24547.0,M,45.7,M,,*52
$GPGGA,125141.00,5221.61343,N,00012.55284,E,1,10,0.79,24604.0,M,45.7,M,,*59
$GPGGA,125151.00,5221.58016,N,00012.53564,E,1,10,0.79,24662.3,M,45.7,M,,*5D
$GPGGA,125201.00,5221.54191,N,00012.50063,E,1,10,0.79,24717.4,M,45.7,M,,*5C
$GPGGA,125211.00,5221.51226,N,00012.47509,E,1,10,0.79,24772.3,M,45.7,M,,*5C
$GPGGA,125221.00,5221.47946,N,00012.44482,E,1,10,0.79,24829.0,M,45.7,M,,*56
$GPGGA,125231.00,5221.45652,N,00012.43748,E,1,10,0.79,24886.3,M,45.7,M,,*5B
$GPGGA,125241.00,5221.43207,N,00012.42179,E,1,10,0.79,24942.4,M,45.7,M,,*55
$GPGGA,125251.00,5221.41837,N,00012.41288,E,1,10,0.85,25000.4,M,45.7,M,,*5C
$GPGGA,125301.00,5221.39605,N,00012.39234,E,1,10,0.79,25054.2,M,45.7,M,,*54
$GPGGA,125311.00,5221.36787,N,00012.39188,E,1,10,0.79,25110.5,M,45.7,M,,*53
$GPGGA,125321.00,5221.33276,N,00012.36365,E,1,10,0.79,25163.8,M,45.7,M,,*59
$GPGGA,125331.00,5221.30245,N,00012.34321,E,1,10,0.79,25222.7,M,45.7,M,,*50
$GPGGA,125341.00,5221.27471,N,00012.29245,E,1,10,0.79,25280.0,M,45.7,M,,*50
$GPGGA,125351.00,5221.24573,N,00012.26582,E,1,10,0.79,25339.8,M,45.7,M,,*59
$GPGGA,125401.00,5221.21746,N,00012.22770,E,1,10,0.79,25398.8,M,45.7,M,,*5A
$GPGGA,125411.00,5221.17795,N,00012.21422,E,1,10,0.79,25458.2,M,45.7,M,,*56
$GPGGA,125421.00,5221.14125,N,00012.18198,E,1,10,0.79,25515.5,M,45.7,M,,*5A
$GPGGA,125431.00,5221.11139,N,00012.16116,E,1,10,0.79,25583.6,M,45.7,M,,*57
$GPGGA,125441.00,5221.09792,N,00012.13116,E,1,10,0.79,25647.7,M,45.7,M,,*51
$GPGGA,125451.00,5221.07910,N,00012.11395,E,1,10,0.79,25709.2,M,45.7,M,,*5F
$GPGGA,125501.00,5221.07991,N,00012.08970,E,1,10,0.79,25768.6,M,45.7,M,,*58
$GPGGA,125511.00,5221.07529,N,00012.07362,E,1,10,0.79,25828.8,M,45.7,M,,*55
$GPGGA,125521.00,5221.08139,N,00012.04839,E,1,10,0.79,25888.4,M,45.7,M,,*5C
$GPGGA,125531.00,5221.07729,N,00012.03773,E,1,10,0.79,25949.3,M,45.7,M,,*58
$GPGGA,125541.00,5221.09537,N,00012.02933,E,1,10,0.79,26002.6,M,45.7,M,,*57
$GPGGA,125551.00,5221.08632,N,00012.02603,E,1,10,0.79,26066.6,M,45.7,M,,*5F
$GPGGA,125601.00,5221.08207,N,00012.03618,E,1,10,0.79,26127.7,M,45.7,M,,*55
$GPGGA,125611.00,5221.06636,N,00012.05821,E,1,10,0.83,26188.8,M,45.7,M,,*51
$GPGGA,125621.00,5221.05923,N,00012.10467,E,1,10,0.79,26247.8,M,45.7,M,,*55
$GPGGA,125631.00,5221.04808,N,00012.13979,E,1,10,0.86,26304.4,M,45.7,M,,*56
$GPGGA,125641.00,5221.04172,N,00012.20309,E,1,10,0.79,26364.8,M,45.7,M,,*52
$GPGGA,125651.00,5221.03114,N,00012.25329,E,1,10,0.79,26420.7,M,45.7,M,,*5B
$GPGGA,125701.00,5221.00072,N,00012.33173,E,1,10,0.79,26477.1,M,45.7,M,,*53
$GPGGA,125711.00,5220.96826,N,00012.39948,E,1,10,0.79,26531.6,M,45.7,M,,*5B
$GPGGA,125721.00,5220.91597,N,00012.49395,E,1,10,0.79,26586.4,M,45.7,M,,*5B
$GPGGA,125731.00,5220.85981,N,00012.56572,E,1,10,0.79,26641.1,M,45.7,M,,*58
$GPGGA,125741.00,5220.79220,N,00012.63200,E,1,10,0.79,26693.9,M,45.7,M,,*5F
$GPGGA,125751.00,5220.73481,N,00012.67377,E,1,10,0.79,26743.1,M,45.7,M,,*58
$GPGGA,125801.00,5220.66386,N,00012.71515,E,1,10,0.79,26797.5,M,45.7,M,,*5E
$GPGGA,125811.00,5220.62452,N,00012.74611,E,1,10,0.79,26851.1,M,45.7,M,,*56
$GPGGA,125821.00,5220.56702,N,00012.77566,E,1,10,0.79,26903.5,M,45.7,M,,*56
$GPGGA,125831.00,5220.52821,N,00012.80800,E,1,10,0.79,26961.2,M,45.7,M,,*5B
$GPGGA,125841.00,5220.48653,N,00012.85292,E,1,10,0.79,27023.3,M,45.7,M,,*57
$GPGGA,125851.00,5220.46348,N,00012.89876,E,1,10,0.79,27079.0,M,45.7,M,,*57
$GPGGA,125901.00,5220.42748,N,00012.92583,E,1,10,0.79,27133.1,M,45.7,M,,*50
$GPGGA,125911.00,5220.40788,N,00012.98735,E,1,10,0.79,27185.9,M,45.7,M,,*5F
$GPGGA,125921.00,5220.38120,N,00013.03162,E,1,10,0.79,27245.6,M,45.7,M,,*50
$GPGGA,125931.00,5220.34048,N,00013.07590,E,1,10,0.79,27305.9,M,45.7,M,,*55
$GPGGA,125941.00,5220.30001,N,00013.09187,E,1,10,0.79,27361.1,M,45.7,M,,*5D
$GPGGA,125951.00,5220.24729,N,00013.12371,E,1,10,0.79,27420.8,M,45.7,M,,*5E
$GPGGA,130001.00,5220.21039,N,00013.15222,E,1,10,0.79,27479.1,M,45.7,M,,*50
$GPGGA,130011.00,5220.17118,N,00013.18354,E,1,10,0.86,27537.1,M,45.7,M,,*50
$GPGGA,130021.00,5220.13141,N,00013.23613,E,1,10,0.79,27594.8,M,45.7,M,,*55
$GPGGA,130031.00,5220.10582,N,00013.29053,E,1,10,0.79,27657.0,M,45.7,M,,*50
$GPGGA,130041.00,5220.06869,N,00013.32287,E,1,10,0.79,27711.6,M,45.7,M,,*5C
$GPGGA,130051.00,5220.03542,N,00013.36411,E,1,10,0.79,27770.8,M,45.7,M,,*58
$GPGGA,130101.00,5220.00875,N,00013.40843,E,1,10,0.95,27832.8,M,45.7,M,,*57
$GPGGA,130111.00,5219.96260,N,00013.44533,E,1,10,0.79,27887.2,M,45.7,M,,*55
$GPGGA,130121.00,5219.92011,N,00013.47092,E,1,10,0.79,27942.4,M,45.7,M,,*55
$GPGGA,130131.00,5219.86531,N,00013.48968,E,1,10,0.79,27994.4,M,45.7,M,,*5E
$GPGGA,130141.00,5219.82336,N,00013.50947,E,1,10,0.79,28048.7,M,45.7,M,,*5C
$GPGGA,130151.00,5219.78957,N,00013.53978,E,1,10,0.79,28106.5,M,45.7,M,,*53
$GPGGA,130201.00,5219.75918,N,00013.57247,E,1,10,0.79,28161.9,M,45.7,M,,*5D
$GPGGA,130211.00,5219.73156,N,00013.61462,E,1,10,0.79,28212.9,M,45.7,M,,*5B
$GPGGA,130221.00,5219.71450,N,00013.66246,E,1,10,0.79,28267.8,M,45.7,M,,*5D
$GPGGA,130231.00,5219.67872,N,00013.70536,E,1,10,0.79,28315.3,M,45.7,M,,*5F
$GPGGA,130241.00,5219.64515,N,00013.72535,E,1,10,0.79,28370.8,M,45.7,M,,*5E
$GPGGA,130251.00,5219.62247,N,00013.72768,E,1,10,0.79,28423.9,M,45.7,M,,*53
$GPGGA,130301.00,5219.60316,N,00013.75221,E,1,10,0.79,28484.1,M,45.7,M,,*5A
$GPGGA,130311.00,5219.59593,N,00013.74858,E,1,10,0.79,28535.3,M,45.7,M,,*56
$GPGGA,130321.00,5219.58814,N,00013.74839,E,1,10,0.79,28584.8,M,45.7,M,,*50
$GPGGA,130331.00,5219.57617,N,00013.76598,E,1,10,0.79,28648.6,M,45.7,M,,*5A
$GPGGA,130341.00,5219.56496,N,00013.81313,E,1,10,0.79,28707.3,M,45.7,M,,*55
$GPGGA,130351.00,5219.53829,N,00013.88333,E,1,10,0.79,28765.9,M,45.7,M,,*5C
$GPGGA,130401.00,5219.51569,N,00013.93674,E,1,10,0.79,28826.0,M,45.7,M,,*58
$GPGGA,130411.00,5219.48575,N,00014.00933,E,1,10,0.79,28883.5,M,45.7,M,,*57
$GPGGA,130421.00,5219.44928,N,00014.07768,E,1,10,0.79,28943.4,M,45.7,M,,*57
$GPGGA,130431.00,5219.42683,N,00014.15848,E,1,10,0.79,29002.4,M,45.7,M,,*5D
$GPGGA,130441.00,5219.39148,N,00014.23674,E,1,10,0.79,29063.0,M,45.7,M,,*51
$GPGGA,130451.00,5219.36009,N,00014.31323,E,1,10,0.79,29119.2,M,45.7,M,,*51
$GPGGA,130501.00,5219.33100,N,00014.40580,E,1,10,0.87,29180.2,M,45.7,M,,*50
$GPGGA,130511.00,5219.28381,N,00014.49159,E,1,10,0.79,29240.6,M,45.7,M,,*53
$GPGGA,130521.00,5219.24535,N,00014.57421,E,1,10,0.79,29297.5,M,45.7,M,,*59
$GPGGA,130531.00,5219.20028,N,00014.63829,E,1,10,0.79,29359.2,M,45.7,M,,*52
$GPGGA,130541.00,5219.15039,N,00014.70784,E,1,10,0.79,29416.8,M,45.7,M,,*5F
$GPGGA,130551.00,5219.10133,N,00014.77471,E,1,10,0.87,29474.3,M,45.7,M,,*50
$GPGGA,130601.00,5219.05738,N,00014.82961,E,1,10,0.87,29533.7,M,45.7,M,,*5F
$GPGGA,130611.00,5219.02313,N,00014.88246,E,1,10,0.87,29591.0,M,45.7,M,,*5F
$GPGGA,130621.00,5218.99565,N,00014.93425,E,1,10,0.87,29650.0,M,45.7,M,,*5F
$GPGGA,130631.00,5218.97327,N,00014.99266,E,1,09,1.30,29708.5,M,45.7,M,,*57
$GPGGA,130641.00,5218.96282,N,00015.04175,E,1,10,0.87,29767.4,M,45.7,M,,*56
$GPGGA,130651.00,5218.96156,N,00015.07991,E,1,10,0.87,29826.4,M,45.7,M,,*56
$GPGGA,130701.00,5218.96894,N,00015.13233,E,1,10,0.87,29887.5,M,45.7,M,,*59
$GPGGA,130711.00,5218.96591,N,00015.20025,E,1,10,0.87,29946.5,M,45.7,M,,*59
$GPGGA,130721.00,5218.95577,N,00015.26099,E,1,11,0.87,30005.2,M,45.7,M,,*50
$GPGGA,130731.00,5218.93367,N,00015.32266,E,1,11,0.87,30064.1,M,45.7,M,,*53
$GPGGA,130741.00,5218.90758,N,00015.40855,E,1,11,0.87,30121.5,M,45.7,M,,*54
$GPGGA,130751.00,5218.88084,N,00015.47534,E,1,11,0.87,30176.4,M,45.7,M,,*54
$GPGGA,130801.00,5218.85376,N,00015.56284,E,1,11,0.87,30237.1,M,45.7,M,,*52
$GPGGA,130811.00,5218.80882,N,00015.64925,E,1,11,0.87,30298.2,M,45.7,M,,*51
$GPGGA,130821.00,5218.76689,N,00015.70947,E,1,10,0.79,30353.6,M,45.7,M,,*5D
$GPGGA,130831.00,5218.72018,N,00015.76649,E,1,10,0.79,30410.2,M,45.7,M,,*55
$GPGGA,130841.00,5218.66385,N,00015.81717,E,1,10,0.79,30470.7,M,45.7,M,,*51
$GPGGA,130851.00,5218.60651,N,00015.85572,E,1,10,0.79,30531.0,M,45.7,M,,*5C
$GPGGA,130901.00,5218.54939,N,00015.89941,E,1,10,0.79,30585.3,M,45.7,M,,*52
$GPGGA,130911.00,5218.50010,N,00015.93720,E,1,10,0.79,30643.7,M,45.7,M,,*5A
$GPGGA,130921.00,5218.46487,N,00015.99208,E,1,10,0.79,30704.7,M,45.7,M,,*53
$GPGGA,130931.00,5218.43357,N,00016.04010,E,1,10,0.79,30762.5,M,45.7,M,,*53
$GPGGA,130941.00,5218.41151,N,00016.12723,E,1,10,0.79,30820.8,M,45.7,M,,*56
$GPGGA,130951.00,5218.38300,N,00016.21536,E,1,10,0.79,30879.0,M,45.7,M,,*5D
$GPGGA,131001.00,5218.36074,N,00016.30464,E,1,10,0.79,30938.9,M,45.7,M,,*55
$GPGGA,131011.00,5218.33927,N,00016.37629,E,1,10,0.79,30995.4,M,45.7,M,,*58
$GPGGA,131021.00,5218.31353,N,00016.43566,E,1,10,0.79,31051.2,M,45.7,M,,*5D
$GPGGA,131031.00,5218.28814,N,00016.50129,E,1,10,0.79,31105.9,M,45.7,M,,*5A
$GPGGA,131041.00,5218.26632,N,00016.55953,E,1,10,0.79,31163.7,M,45.7,M,,*57
$GPGGA,131051.00,5218.24536,N,00016.61176,E,1,10,0.79,31222.8,M,45.7,M,,*52
$GPGGA,131101.00,5218.23129,N,00016.67710,E,1,10,0.79,31279.8,M,45.7,M,,*55
$GPGGA,131111.00,5218.22727,N,00016.74795,E,1,10,0.79,31334.3,M,45.7,M,,*51
$GPGGA,131121.00,5218.21583,N,00016.81653,E,1,10,0.79,31391.8,M,45.7,M,,*58
$GPGGA,131131.00,5218.19402,N,00016.89242,E,1,10,0.79,31448.2,M,45.7,M,,*5F
$GPGGA,131141.00,5218.17359,N,00016.98279,E,1,10,0.79,31502.6,M,45.7,M,,*5C
$GPGGA,131151.00,5218.15849,N,00017.08788,E,1,10,0.79,31552.2,M,45.7,M,,*57
$GPGGA,131201.00,5218.15116,N,00017.16230,E,1,10,0.79,31153.3,M,45.7,M,,*5F
$GPGGA,131211.00,5218.13346,N,00017.23207,E,1,10,0.79,30578.6,M,45.7,M,,*54
$GPGGA,131221.00,5218.10458,N,00017.29157,E,1,10,0.79,30024.5,M,45.7,M,,*5F
$GPGGA,131231.00,5218.08686,N,00017.35176,E,1,10,0.79,29495.1,M,45.7,M,,*5A
$GPGGA,131241.00,5218.03906,N,00017.40507,E,1,10,0.88,28994.6,M,45.7,M,,*55
$GPGGA,131251.00,5218.00689,N,00017.46968,E,1,10,0.79,28499.6,M,45.7,M,,*52
$GPGGA,131301.00,5217.98050,N,00017.51818,E,1,10,0.79,28015.0,M,45.7,M,,*5C
$GPGGA,131311.00,5217.94478,N,00017.56239,E,1,10,0.79,27552.5,M,45.7,M,,*5D
$GPGGA,131321.00,5217.90459,N,00017.60113,E,1,10,0.79,27111.5,M,45.7,M,,*54
$GPGGA,131331.00,5217.87231,N,00017.63387,E,1,10,0.79,26679.6,M,45.7,M,,*5C
$GPGGA,131341.00,5217.82127,N,00017.67623,E,1,10,0.79,26256.8,M,45.7,M,,*52
$GPGGA,131351.00,5217.79629,N,00017.71245,E,1,10,0.79,25860.4,M,45.7,M,,*5D
$GPGGA,131401.00,5217.79368,N,00017.71131,E,1,10,0.79,25472.5,M,45.7,M,,*51
$GPGGA,131411.00,5217.76893,N,00017.69166,E,1,11,0.79,25102.8,M,45.7,M,,*55
$GPGGA,131421.00,5217.74139,N,00017.67776,E,1,11,0.80,24740.4,M,45.7,M,,*5F
$GPGGA,131431.00,5217.71004,N,00017.66191,E,1,11,0.80,24378.4,M,45.7,M,,*55
$GPGGA,131441.00,5217.67244,N,00017.66621,E,1,11,0.72,24034.4,M,45.7,M,,*59
$GPGGA,131451.00,5217.63316,N,00017.67396,E,1,11,0.72,23706.8,M,45.7,M,,*5F
$GPGGA,131501.00,5217.58728,N,00017.69000,E,1,11,0.72,23385.6,M,45.7,M,,*59
$GPGGA,131511.00,5217.52923,N,00017.69658,E,1,11,0.72,23066.6,M,45.7,M,,*52
$GPGGA,131521.00,5217.47871,N,00017.70252,E,1,11,0.72,22757.9,M,45.7,M,,*5E
$GPGGA,131531.00,5217.44667,N,00017.73492,E,1,11,0.72,22456.0,M,45.7,M,,*57
$GPGGA,131541.00,5217.41936,N,00017.77925,E,1,11,0.72,22165.8,M,45.7,M,,*56
$GPGGA,131551.00,5217.45092,N,00017.77242,E,1,11,0.72,21897.9,M,45.7,M,,*58
$GPGGA,131601.00,5217.44503,N,00017.73350,E,1,11,0.72,21620.2,M,45.7,M,,*5D
$GPGGA,131611.00,5217.41033,N,00017.72823,E,1,11,0.72,21356.7,M,45.7,M,,*50
$GPGGA,131621.00,5217.39851,N,00017.67470,E,1,11,0.72,21087.0,M,45.7,M,,*56
$GPGGA,131631.00,5217.36536,N,00017.55507,E,1,11,0.72,20848.1,M,45.7,M,,*5F
$GPGGA,131641.00,5217.31301,N,00017.50980,E,1,11,0.72,20581.1,M,45.7,M,,*53
$GPGGA,131651.00,5217.26547,N,00017.48849,E,1,11,0.82,20316.5,M,45.7,M,,*5E
$GPGGA,131701.00,5217.21529,N,00017.43416,E,1,11,0.72,20092.4,M,45.7,M,,*59
$GPGGA,131711.00,5217.17612,N,00017.43454,E,1,11,0.72,19863.2,M,45.7,M,,*5A
$GPGGA,131721.00,5217.13667,N,00017.45771,E,1,11,0.73,19629.9,M,45.7,M,,*57
$GPGGA,131731.00,5217.11476,N,00017.44351,E,1,11,0.80,19388.4,M,45.7,M,,*5E
$GPGGA,131741.00,5217.08901,N,00017.46091,E,1,11,0.80,19151.6,M,45.7,M,,*55
$GPGGA,131751.00,5217.06873,N,00017.45548,E,1,11,0.80,18934.8,M,45.7,M,,*58
$GPGGA,131801.00,5217.05721,N,00017.49884,E,1,11,0.73,18723.5,M,45.7,M,,*51
$GPGGA,131811.00,5217.02899,N,00017.48652,E,1,11,0.83,18512.0,M,45.7,M,,*55
$GPGGA,131821.00,5217.02217,N,00017.45005,E,1,11,0.73,18317.1,M,45.7,M,,*5E
$GPGGA,131831.00,5217.02831,N,00017.40008,E,1,11,0.73,18134.4,M,45.7,M,,*5F
$GPGGA,131841.00,5217.00353,N,00017.41715,E,1,11,0.73,17923.9,M,45.7,M,,*53
$GPGGA,131851.00,5216.98466,N,00017.37250,E,1,11,0.73,17736.0,M,45.7,M,,*55
$GPGGA,131901.00,5216.97706,N,00017.40149,E,1,11,0.73,17537.3,M,45.7,M,,*50
$GPGGA,131911.00,5216.97623,N,00017.41824,E,1,11,0.84,17337.4,M,45.7,M,,*5D
$GPGGA,131921.00,5216.98337,N,00017.49258,E,1,11,0.89,17149.6,M,45.7,M,,*5C
$GPGGA,131931.00,5216.97414,N,00017.57139,E,1,11,0.84,16975.0,M,45.7,M,,*52
$GPGGA,131941.00,5216.98595,N,00017.60532,E,1,11,0.84,16795.3,M,45.7,M,,*5A
$GPGGA,131951.00,5216.99967,N,00017.67149,E,1,11,0.84,16611.2,M,45.7,M,,*58
$GPGGA,132001.00,5217.00508,N,00017.69820,E,1,11,0.84,16441.4,M,45.7,M,,*5A
$GPGGA,132011.00,5217.04314,N,00017.73444,E,1,11,0.86,16269.7,M,45.7,M,,*5C
$GPGGA,132021.00,5217.05054,N,00017.83253,E,1,11,0.84,16110.4,M,45.7,M,,*5A
$GPGGA,132031.00,5217.08059,N,00017.89155,E,1,11,0.84,15949.3,M,45.7,M,,*54
$GPGGA,132041.00,5217.08291,N,00017.96584,E,1,11,0.84,15783.7,M,45.7,M,,*5F
$GPGGA,132051.00,5217.11400,N,00018.01749,E,1,11,0.84,15638.1,M,45.7,M,,*5D
$GPGGA,132101.00,5217.12262,N,00018.08612,E,1,11,0.84,15489.7,M,45.7,M,,*50
$GPGGA,132111.00,5217.11949,N,00018.16892,E,1,11,0.84,15341.4,M,45.7,M,,*59
$GPGGA,132121.00,5217.13220,N,00018.25841,E,1,10,0.84,15181.4,M,45.7,M,,*5D
$GPGGA,132131.00,5217.15548,N,00018.34052,E,1,10,0.84,15025.3,M,45.7,M,,*51
$GPGGA,132141.00,5217.18412,N,00018.43619,E,1,10,0.84,14867.8,M,45.7,M,,*58
$GPGGA,132151.00,5217.21326,N,00018.50237,E,1,10,0.84,14714.2,M,45.7,M,,*58
$GPGGA,132201.00,5217.24287,N,00018.58215,E,1,10,0.84,14561.2,M,45.7,M,,*59
$GPGGA,132211.00,5217.27428,N,00018.64763,E,1,10,0.84,14411.5,M,45.7,M,,*52
$GPGGA,132221.00,5217.32791,N,00018.72306,E,1,10,0.84,14275.9,M,45.7,M,,*5C
$GPGGA,132231.00,5217.35594,N,00018.81654,E,1,10,0.84,14132.5,M,45.7,M,,*5F
$GPGGA,132241.00,5217.37693,N,00018.89104,E,1,10,0.84,13992.5,M,45.7,M,,*51
$GPGGA,132251.00,5217.39390,N,00018.98732,E,1,10,0.84,13852.9,M,45.7,M,,*5A
$GPGGA,132301.00,5217.42180,N,00019.07300,E,1,10,0.84,13713.6,M,45.7,M,,*56
$GPGGA,132311.00,5217.47443,N,00019.15190,E,1,10,0.84,13576.7,M,45.7,M,,*50
$GPGGA,132321.00,5217.51082,N,00019.23019,E,1,10,0.84,13439.2,M,45.7,M,,*57
$GPGGA,132331.00,5217.54724,N,00019.32272,E,1,10,1.23,13304.2,M,45.7,M,,*52
$GPGGA,132341.00,5217.58679,N,00019.41476,E,1,10,0.84,13172.7,M,45.7,M,,*5C
$GPGGA,132351.00,5217.61964,N,00019.48239,E,1,10,0.84,13038.9,M,45.7,M,,*51
$GPGGA,132401.00,5217.64623,N,00019.55575,E,1,10,0.84,12910.2,M,45.7,M,,*50
$GPGGA,132411.00,5217.66159,N,00019.64101,E,1,10,0.84,12781.3,M,45.7,M,,*5B
$GPGGA,132421.00,5217.68160,N,00019.71255,E,1,10,0.85,12658.1,M,45.7,M,,*5C
$GPGGA,132431.00,5217.71841,N,00019.82381,E,1,10,0.85,12536.1,M,45.7,M,,*50
$GPGGA,132441.00,5217.74497,N,00019.90498,E,1,10,0.85,12405.0,M,45.7,M,,*59
$GPGGA,132451.00,5217.79773,N,00019.99430,E,1,10,0.85,12291.2,M,45.7,M,,*5E
$GPGGA,132501.00,5217.82338,N,00020.06937,E,1,10,0.85,12165.7,M,45.7,M,,*5E
$GPGGA,132511.00,5217.84278,N,00020.15188,E,1,10,0.85,12049.9,M,45.7,M,,*53
$GPGGA,132521.00,5217.87226,N,00020.23269,E,1,10,0.85,11929.1,M,45.7,M,,*55
$GPGGA,132531.00,5217.87295,N,00020.33559,E,1,10,0.85,11818.1,M,45.7,M,,*5A
$GPGGA,132541.00,5217.89980,N,00020.40837,E,1,10,0.85,11705.8,M,45.7,M,,*57
$GPGGA,132551.00,5217.91763,N,00020.49725,E,1,10,0.85,11596.6,M,45.7,M,,*5F
$GPGGA,132601.00,5217.91966,N,00020.59256,E,1,10,0.85,11491.3,M,45.7,M,,*51
$GPGGA,132611.00,5217.92313,N,00020.67375,E,1,10,0.85,11383.8,M,45.7,M,,*59
$GPGGA,132621.00,5217.92613,N,00020.72229,E,1,11,0.85,11257.3,M,45.7,M,,*51
$GPGGA,132631.00,5217.91813,N,00020.77590,E,1,11,0.85,11133.7,M,45.7,M,,*58
$GPGGA,132641.00,5217.91443,N,00020.82069,E,1,11,0.85,11016.4,M,45.7,M,,*5A
$GPGGA,132651.00,5217.90142,N,00020.85616,E,1,11,0.85,10902.1,M,45.7,M,,*5F
$GPGGA,132701.00,5217.89560,N,00020.91283,E,1,11,0.85,10795.0,M,45.7,M,,*5B
$GPGGA,132711.00,5217.90034,N,00020.96951,E,1,11,0.82,10684.2,M,45.7,M,,*51
$GPGGA,132721.00,5217.89404,N,00021.02913,E,1,11,0.82,10578.8,M,45.7,M,,*5D
$GPGGA,132731.00,5217.88598,N,00021.09215,E,1,11,0.82,10476.9,M,45.7,M,,*51
$GPGGA,132741.00,5217.88923,N,00021.15378,E,1,11,0.82,10370.6,M,45.7,M,,*53
$GPGGA,132751.00,5217.87105,N,00021.21037,E,1,11,0.82,10268.8,M,45.7,M,,*58
$GPGGA,132801.00,5217.84939,N,00021.27240,E,1,11,0.82,10164.1,M,45.7,M,,*54
$GPGGA,132811.00,5217.84145,N,00021.33468,E,1,11,0.82,10053.0,M,45.7,M,,*5B
$GPGGA,132821.00,5217.83419,N,00021.38402,E,1,11,0.82,9959.1,M,45.7,M,,*6E
$GPGGA,132831.00,5217.82719,N,00021.46759,E,1,11,0.82,9866.8,M,45.7,M,,*6D
$GPGGA,132841.00,5217.83565,N,00021.51313,E,1,11,0.82,9766.8,M,45.7,M,,*61
$GPGGA,132851.00,5217.85705,N,00021.55224,E,1,11,0.82,9668.5,M,45.7,M,,*61
$GPGGA,132901.00,5217.87498,N,00021.59342,E,1,11,0.82,9573.7,M,45.7,M,,*66
$GPGGA,132911.00,5217.90017,N,00021.63374,E,1,11,0.82,9478.9,M,45.7,M,,*6A
$GPGGA,132921.00,5217.92056,N,00021.67655,E,1,11,0.82,9384.1,M,45.7,M,,*60
$GPGGA,132931.00,5217.96547,N,00021.67699,E,1,11,0.83,9295.4,M,45.7,M,,*65
$GPGGA,132941.00,5217.99098,N,00021.70042,E,1,11,0.83,9198.0,M,45.7,M,,*66
$GPGGA,132951.00,5218.02238,N,00021.72215,E,1,11,0.83,9107.9,M,45.7,M,,*6F
$GPGGA,133001.00,5218.06207,N,00021.73764,E,1,11,0.83,9017.5,M,45.7,M,,*64
$GPGGA,133011.00,5218.09169,N,00021.75840,E,1,11,0.83,8923.8,M,45.7,M,,*6C
$GPGGA,133021.00,5218.10929,N,00021.79384,E,1,11,0.83,8838.3,M,45.7,M,,*64
$GPGGA,133031.00,5218.14017,N,00021.83487,E,1,11,0.83,8747.0,M,45.7,M,,*60
$GPGGA,133041.00,5218.18169,N,00021.86068,E,1,11,0.83,8652.7,M,45.7,M,,*61
$GPGGA,133051.00,5218.23651,N,00021.93810,E,1,11,0.83,8557.7,M,45.7,M,,*61
$GPGGA,133101.00,5218.28662,N,00022.04135,E,1,11,0.92,8475.4,M,45.7,M,,*6F
$GPGGA,133111.00,5218.32377,N,00022.15205,E,1,11,0.92,8389.0,M,45.7,M,,*64
$GPGGA,133121.00,5218.34693,N,00022.25668,E,1,11,0.92,8305.8,M,45.7,M,,*6E
$GPGGA,133131.00,5218.38507,N,00022.34387,E,1,11,0.92,8216.9,M,45.7,M,,*6B
$GPGGA,133141.00,5218.42515,N,00022.41997,E,1,11,0.92,8131.5,M,45.7,M,,*61
$GPGGA,133151.00,5218.45997,N,00022.47272,E,1,11,0.92,8049.6,M,45.7,M,,*6A
$GPGGA,133201.00,5218.49456,N,00022.52281,E,1,11,0.93,7969.5,M,45.7,M,,*6E
$GPGGA,133211.00,5218.55959,N,00022.59935,E,1,11,0.93,7885.8,M,45.7,M,,*61
$GPGGA,133221.00,5218.61876,N,00022.71763,E,1,10,0.93,7802.8,M,45.7,M,,*60
$GPGGA,133231.00,5218.67879,N,00022.79871,E,1,10,0.93,7724.7,M,45.7,M,,*68
$GPGGA,133241.00,5218.72209,N,00022.92921,E,1,10,0.93,7647.3,M,45.7,M,,*67
$GPGGA,133251.00,5218.79200,N,00023.03196,E,1,10,0.93,7568.9,M,45.7,M,,*6D
$GPGGA,133301.00,5218.85084,N,00023.15472,E,1,10,0.93,7487.9,M,45.7,M,,*6C
$GPGGA,133311.00,5218.91721,N,00023.25634,E,1,10,0.93,7391.6,M,45.7,M,,*6C
$GPGGA,133321.00,5218.98448,N,00023.36422,E,1,10,0.93,7291.8,M,45.7,M,,*62
$GPGGA,133331.00,5219.05321,N,00023.47505,E,1,10,0.93,7194.5,M,45.7,M,,*67
$GPGGA,133341.00,5219.12079,N,00023.57931,E,1,10,1.33,7107.3,M,45.7,M,,*65
$GPGGA,133351.00,5219.18684,N,00023.69157,E,1,10,0.93,7013.6,M,45.7,M,,*65
$GPGGA,133401.00,5219.25321,N,00023.79086,E,1,10,0.93,6914.9,M,45.7,M,,*6F
$GPGGA,133411.00,5219.32436,N,00023.88809,E,1,10,0.93,6819.8,M,45.7,M,,*65
$GPGGA,133421.00,5219.37683,N,00023.98150,E,1,10,0.93,6743.4,M,45.7,M,,*67
$GPGGA,133431.00,5219.43688,N,00024.07160,E,1,10,0.93,6646.4,M,45.7,M,,*68
$GPGGA,133441.00,5219.50036,N,00024.16829,E,1,10,0.93,6549.7,M,45.7,M,,*65
$GPGGA,133451.00,5219.55990,N,00024.26256,E,1,10,0.93,6460.3,M,45.7,M,,*6B
$GPGGA,133501.00,5219.62425,N,00024.34872,E,1,10,0.93,6372.4,M,45.7,M,,*64
$GPGGA,133511.00,5219.69158,N,00024.42714,E,1,10,0.93,6282.8,M,45.7,M,,*6D
$GPGGA,133521.00,5219.75131,N,00024.50656,E,1,10,0.93,6204.6,M,45.7,M,,*68
$GPGGA,133531.00,5219.80561,N,00024.55292,E,1,10,0.94,6130.9,M,45.7,M,,*67
$GPGGA,133541.00,5219.85082,N,00024.63620,E,1,10,0.94,6055.3,M,45.7,M,,*6D
$GPGGA,133551.00,5219.90812,N,00024.73636,E,1,10,0.94,5981.7,M,45.7,M,,*68
$GPGGA,133601.00,5219.96101,N,00024.80827,E,1,10,0.94,5902.7,M,45.7,M,,*6A
$GPGGA,133611.00,5220.02366,N,00024.84501,E,1,10,0.94,5829.8,M,45.7,M,,*65
$GPGGA,133621.00,5220.09878,N,00024.92275,E,1,10,0.94,5756.8,M,45.7,M,,*6D
$GPGGA,133631.00,5220.15384,N,00025.02577,E,1,10,0.94,5682.1,M,45.7,M,,*65
$GPGGA,133641.00,5220.20892,N,00025.13564,E,1,10,0.94,5609.4,M,45.7,M,,*6C
$GPGGA,133651.00,5220.25129,N,00025.19046,E,1,10,0.94,5538.6,M,45.7,M,,*6D
$GPGGA,133701.00,5220.31144,N,00025.22689,E,1,10,0.94,5467.5,M,45.7,M,,*62
$GPGGA,133711.00,5220.37914,N,00025.29339,E,1,10,0.94,5396.4,M,45.7,M,,*65
$GPGGA,133721.00,5220.44684,N,00025.33099,E,1,10,0.94,5325.7,M,45.7,M,,*6D
$GPGGA,133731.00,5220.51524,N,00025.39114,E,1,10,0.94,5255.2,M,45.7,M,,*6C
$GPGGA,133741.00,5220.57731,N,00025.41584,E,1,10,0.94,5185.0,M,45.7,M,,*65
$GPGGA,133751.00,5220.62135,N,00025.44208,E,1,10,0.94,5113.2,M,45.7,M,,*6B
$GPGGA,133801.00,5220.65006,N,00025.50624,E,1,10,0.94,5045.3,M,45.7,M,,*6B
$GPGGA,133811.00,5220.69685,N,00025.53810,E,1,10,0.94,4972.5,M,45.7,M,,*6B
$GPGGA,133821.00,5220.75227,N,00025.57468,E,1,10,0.94,4898.6,M,45.7,M,,*68
$GPGGA,133831.00,5220.80833,N,00025.62652,E,1,10,0.94,4826.3,M,45.7,M,,*61
$GPGGA,133841.00,5220.88239,N,00025.67415,E,1,10,0.94,4757.7,M,45.7,M,,*67
$GPGGA,133851.00,5220.91906,N,00025.71133,E,1,10,0.94,4688.6,M,45.7,M,,*6D
$GPGGA,133901.00,5220.96910,N,00025.76607,E,1,10,0.95,4615.1,M,45.7,M,,*6C
$GPGGA,133911.00,5221.01849,N,00025.83594,E,1,10,0.95,4537.6,M,45.7,M,,*68
$GPGGA,133921.00,5221.06681,N,00025.90798,E,1,10,0.95,4463.4,M,45.7,M,,*68
$GPGGA,133931.00,5221.10281,N,00025.96878,E,1,10,0.95,4392.4,M,45.7,M,,*64
$GPGGA,133941.00,5221.14408,N,00026.02381,E,1,10,0.95,4320.7,M,45.7,M,,*69
$GPGGA,133951.00,5221.19299,N,00026.09936,E,1,10,0.95,4253.9,M,45.7,M,,*6D
$GPGGA,134001.00,5221.22901,N,00026.12803,E,1,10,0.95,4184.8,M,45.7,M,,*61
