$GPGGA,,,,,,0,00,99.99,,,,,,*48
$GPGGA,,,,,,0,00,99.99,,,,,,*48^M
$GPGGA,105740.00,,,,,0,00,99.99,,,,,,*62
$GPGGA,105745.00,,,,,0,00,99.99,,,,,,*65
$GPGGA,105750.00,,,,,0,00,99.99,,,,,,*60
$GPGGA,105755.00,,,,,0,00,99.99,,,,,,*65
$GPGGA,105756.99,5215.08650,N,00005.54469,W,1,05,3.21,55.2,M,45.8,M,,*77
$GPGGA,105758.00,5215.08660,N,00005.54450,W,1,05,3.21,56.4,M,45.8,M,,*75
$GPGGA,105759.00,5215.08658,N,00005.54409,W,1,05,3.21,56.2,M,45.8,M,,*75
$GPGGA,105800.00,5215.08652,N,00005.54365,W,1,05,3.21,56.1,M,45.8,M,,*72
$GPGGA,105801.00,5215.08630,N,00005.54341,W,1,05,3.20,55.7,M,45.8,M,,*75
$GPGGA,105802.00,5215.08626,N,00005.54294,W,1,05,3.20,54.7,M,45.8,M,,*79
$GPGGA,105803.00,5215.08612,N,00005.54262,W,1,05,3.20,53.8,M,45.8,M,,*7E
$GPGGA,105804.00,5215.08658,N,00005.54279,W,1,05,3.20,54.6,M,45.8,M,,*74
$GPGGA,105805.00,5215.08656,N,00005.54314,W,1,05,3.20,54.8,M,45.8,M,,*7F
$GPGGA,105806.00,5215.08645,N,00005.54357,W,1,05,3.20,54.6,M,45.8,M,,*77
$GPGGA,105807.00,5215.08633,N,00005.54389,W,1,05,3.20,54.5,M,45.8,M,,*77
$GPGGA,105808.00,5215.08641,N,00005.54414,W,1,05,3.19,54.7,M,45.8,M,,*76
$GPGGA,105809.00,5215.08642,N,00005.54426,W,1,05,3.19,54.8,M,45.8,M,,*7A
$GPGGA,105810.00,5215.08667,N,00005.54420,W,1,05,3.19,54.9,M,45.8,M,,*72
$GPGGA,105811.00,5215.08629,N,00005.54438,W,1,05,3.19,54.0,M,45.8,M,,*79
$GPGGA,105812.00,5215.08586,N,00005.54478,W,1,05,3.19,52.9,M,45.8,M,,*77
$GPGGA,105813.00,5215.08543,N,00005.54492,W,1,05,3.19,52.4,M,45.8,M,,*76
$GPGGA,105814.00,5215.08512,N,00005.54494,W,1,05,3.19,52.5,M,45.8,M,,*72
$GPGGA,105815.00,5215.08517,N,00005.54481,W,1,05,3.19,52.3,M,45.8,M,,*74
$GPGGA,105816.00,5215.08469,N,00005.54428,W,1,05,3.18,51.0,M,45.8,M,,*7D
$GPGGA,105817.00,5215.08411,N,00005.54411,W,1,05,3.18,49.6,M,45.8,M,,*76
$GPGGA,105818.00,5215.08369,N,00005.54423,W,1,05,3.18,49.4,M,45.8,M,,*72
$GPGGA,105819.00,5215.08359,N,00005.54429,W,1,05,3.18,50.0,M,45.8,M,,*76
$GPGGA,105820.00,5215.08335,N,00005.54428,W,1,05,3.18,49.8,M,45.8,M,,*77
$GPGGA,105821.00,5215.08316,N,00005.54430,W,1,05,3.18,49.4,M,45.8,M,,*72
$GPGGA,105822.00,5215.08317,N,00005.54414,W,1,05,3.18,48.6,M,45.8,M,,*75
$GPGGA,105823.00,5215.08312,N,00005.54369,W,1,05,3.17,47.5,M,45.8,M,,*7F
$GPGGA,105824.00,5215.08320,N,00005.54359,W,1,05,3.17,46.5,M,45.8,M,,*7B
$GPGGA,105825.00,5215.08357,N,00005.54360,W,1,05,3.17,46.6,M,45.8,M,,*73
$GPGGA,105826.00,5215.08367,N,00005.54377,W,1,05,3.17,46.5,M,45.8,M,,*76
$GPGGA,105827.00,5215.08365,N,00005.54393,W,1,05,3.17,46.3,M,45.8,M,,*79
$GPGGA,105828.00,5215.08349,N,00005.54395,W,1,05,3.17,45.2,M,45.8,M,,*7C
$GPGGA,105829.00,5215.08350,N,00005.54408,W,1,05,3.17,44.4,M,45.8,M,,*71
$GPGGA,105830.00,5215.08337,N,00005.54398,W,1,05,3.16,43.4,M,45.8,M,,*70
$GPGGA,105831.00,5215.08332,N,00005.54409,W,1,05,3.16,42.5,M,45.8,M,,*7B
$GPGGA,105832.00,5215.08322,N,00005.54423,W,1,05,3.16,41.9,M,45.8,M,,*7E
$GPGGA,105833.00,5215.08272,N,00005.54438,W,1,05,3.16,40.6,M,45.8,M,,*7F
$GPGGA,105834.00,5215.08237,N,00005.54443,W,1,05,3.16,39.8,M,45.8,M,,*75
$GPGGA,105835.00,5215.08217,N,00005.54426,W,1,05,3.16,39.3,M,45.8,M,,*7E
$GPGGA,105836.00,5215.08196,N,00005.54401,W,1,05,3.16,38.4,M,45.8,M,,*74
$GPGGA,105837.00,5215.08187,N,00005.54367,W,1,05,3.15,37.9,M,45.8,M,,*73
$GPGGA,105838.00,5215.08186,N,00005.54355,W,1,05,3.15,37.6,M,45.8,M,,*73
$GPGGA,105839.00,5215.08182,N,00005.54331,W,1,05,3.15,37.4,M,45.8,M,,*76
$GPGGA,105840.00,5215.08190,N,00005.54319,W,1,05,3.15,37.8,M,45.8,M,,*7D
$GPGGA,105841.00,5215.08181,N,00005.54292,W,1,05,3.15,37.6,M,45.8,M,,*70
$GPGGA,105842.00,5215.08162,N,00005.54264,W,1,05,3.15,37.3,M,45.8,M,,*72
$GPGGA,105843.00,5215.08170,N,00005.54244,W,1,05,3.15,37.5,M,45.8,M,,*74
$GPGGA,105844.00,5215.08203,N,00005.54245,W,1,05,3.14,38.0,M,45.8,M,,*7E
$GPGGA,105845.00,5215.08220,N,00005.54228,W,1,05,3.14,38.0,M,45.8,M,,*75
$GPGGA,105846.00,5215.08221,N,00005.54208,W,1,05,3.14,38.1,M,45.8,M,,*74
$GPGGA,105847.00,5215.08299,N,00005.54204,W,1,05,3.14,39.7,M,45.8,M,,*7D
$GPGGA,105848.00,5215.08390,N,00005.54206,W,1,05,3.14,41.6,M,45.8,M,,*76
$GPGGA,105849.00,5215.08422,N,00005.54184,W,1,05,3.14,42.2,M,45.8,M,,*77
$GPGGA,105850.00,5215.08462,N,00005.54174,W,1,05,3.14,43.1,M,45.8,M,,*76
$GPGGA,105851.00,5215.08524,N,00005.54147,W,1,05,3.14,44.5,M,45.8,M,,*77
$GPGGA,105852.00,5215.08672,N,00005.54164,W,1,06,1.53,47.9,M,45.8,M,,*78
$GPGGA,105853.00,5215.08747,N,00005.54173,W,1,06,1.53,49.5,M,45.8,M,,*7A
$GPGGA,105854.00,5215.08785,N,00005.54183,W,1,06,1.53,50.3,M,45.8,M,,*72
$GPGGA,105855.00,5215.08807,N,00005.54179,W,1,06,1.53,50.4,M,45.8,M,,*74
$GPGGA,105856.00,5215.08823,N,00005.54180,W,1,06,1.53,50.5,M,45.8,M,,*76
$GPGGA,105857.00,5215.08829,N,00005.54189,W,1,06,1.52,50.5,M,45.8,M,,*75
$GPGGA,105858.00,5215.08829,N,00005.54175,W,1,06,1.52,50.2,M,45.8,M,,*7E
$GPGGA,105859.00,5215.08843,N,00005.54162,W,1,06,1.52,50.2,M,45.8,M,,*75
$GPGGA,105900.00,5215.08855,N,00005.54159,W,1,06,1.52,50.0,M,45.8,M,,*75
$GPGGA,105901.00,5215.08863,N,00005.54187,W,1,06,1.52,50.3,M,45.8,M,,*71
$GPGGA,105902.00,5215.08865,N,00005.54233,W,1,06,1.52,50.7,M,45.8,M,,*7C
$GPGGA,105903.00,5215.08877,N,00005.54260,W,1,06,1.52,51.2,M,45.8,M,,*7C
$GPGGA,105904.00,5215.08860,N,00005.54381,W,1,08,1.17,52.3,M,45.8,M,,*7E
$GPGGA,105905.00,5215.08834,N,00005.54496,W,1,07,1.17,53.0,M,45.8,M,,*72
$GPGGA,105906.00,5215.08819,N,00005.54566,W,1,07,1.17,53.6,M,45.8,M,,*76
$GPGGA,105907.00,5215.08801,N,00005.54628,W,1,07,1.17,53.8,M,45.8,M,,*79
$GPGGA,105908.00,5215.08793,N,00005.54677,W,1,07,1.17,54.1,M,45.8,M,,*76
$GPGGA,105909.00,5215.08793,N,00005.54701,W,1,07,1.17,54.5,M,45.8,M,,*73
$GPGGA,105910.00,5215.08796,N,00005.54723,W,1,07,1.17,55.0,M,45.8,M,,*7A
$GPGGA,105911.00,5215.08802,N,00005.54754,W,1,07,1.17,55.6,M,45.8,M,,*7F
$GPGGA,105912.00,5215.08811,N,00005.54783,W,1,07,1.17,56.0,M,45.8,M,,*71
$GPGGA,105913.00,5215.08799,N,00005.54802,W,1,07,1.17,55.8,M,45.8,M,,*72
$GPGGA,105914.00,5215.08788,N,00005.54803,W,1,07,1.17,55.5,M,45.8,M,,*79
$GPGGA,105915.00,5215.08775,N,00005.54795,W,1,07,1.17,55.2,M,45.8,M,,*7D
$GPGGA,105916.00,5215.08761,N,00005.54803,W,1,07,1.17,55.0,M,45.8,M,,*79
$GPGGA,105917.00,5215.08760,N,00005.54813,W,1,07,1.17,55.2,M,45.8,M,,*7A
$GPGGA,105918.00,5215.08759,N,00005.54816,W,1,07,1.17,55.4,M,45.8,M,,*7C
$GPGGA,105919.00,5215.08757,N,00005.54835,W,1,07,1.17,55.5,M,45.8,M,,*73
$GPGGA,105920.00,5215.08759,N,00005.54850,W,1,07,1.17,55.5,M,45.8,M,,*74
$GPGGA,105921.00,5215.08759,N,00005.54875,W,1,07,1.17,55.5,M,45.8,M,,*72
$GPGGA,105922.00,5215.08763,N,00005.54896,W,1,07,1.17,55.8,M,45.8,M,,*78
$GPGGA,105923.00,5215.08771,N,00005.54901,W,1,07,1.17,56.1,M,45.8,M,,*7F
$GPGGA,105924.00,5215.08779,N,00005.54907,W,1,07,1.17,56.3,M,45.8,M,,*74
$GPGGA,105925.00,5215.08793,N,00005.54888,W,1,07,1.17,56.6,M,45.8,M,,*72
$GPGGA,105926.00,5215.08801,N,00005.54874,W,1,07,1.17,56.9,M,45.8,M,,*79
$GPGGA,105927.00,5215.08809,N,00005.54866,W,1,07,1.17,57.2,M,45.8,M,,*79
$GPGGA,105928.00,5215.08812,N,00005.54873,W,1,07,1.17,57.4,M,45.8,M,,*7E
$GPGGA,105929.00,5215.08834,N,00005.54860,W,1,07,1.17,57.8,M,45.8,M,,*75
$GPGGA,105930.00,5215.08853,N,00005.54848,W,1,07,1.17,58.0,M,45.8,M,,*71
$GPGGA,105931.00,5215.08861,N,00005.54840,W,1,07,1.17,58.2,M,45.8,M,,*7B
$GPGGA,105932.00,5215.08860,N,00005.54846,W,1,07,1.17,58.2,M,45.8,M,,*7F
$GPGGA,105933.00,5215.08860,N,00005.54857,W,1,07,1.17,58.1,M,45.8,M,,*7D
$GPGGA,105934.00,5215.08864,N,00005.54862,W,1,07,1.17,58.1,M,45.8,M,,*78
$GPGGA,105935.00,5215.08876,N,00005.54846,W,1,07,1.17,58.4,M,45.8,M,,*79
$GPGGA,105936.00,5215.08893,N,00005.54825,W,1,07,1.17,58.7,M,45.8,M,,*77
$GPGGA,105937.00,5215.08902,N,00005.54798,W,1,07,1.17,59.0,M,45.8,M,,*70
$GPGGA,105938.00,5215.08913,N,00005.54774,W,1,07,1.17,59.4,M,45.8,M,,*79
$GPGGA,105939.00,5215.08923,N,00005.54757,W,1,07,1.17,59.9,M,45.8,M,,*77
$GPGGA,105940.00,5215.08921,N,00005.54735,W,1,07,1.17,60.0,M,45.8,M,,*7C
$GPGGA,105941.00,5215.08927,N,00005.54713,W,1,07,1.17,60.1,M,45.8,M,,*7E
$GPGGA,105942.00,5215.08931,N,00005.54705,W,1,07,1.17,60.0,M,45.8,M,,*7C
$GPGGA,105943.00,5215.08930,N,00005.54698,W,1,07,1.17,60.1,M,45.8,M,,*78
$GPGGA,105944.00,5215.08927,N,00005.54672,W,1,07,1.17,60.1,M,45.8,M,,*7D
$GPGGA,105945.00,5215.08924,N,00005.54625,W,1,07,1.17,60.3,M,45.8,M,,*7F
$GPGGA,105946.00,5215.08923,N,00005.54580,W,1,07,1.17,60.4,M,45.8,M,,*70
$GPGGA,105947.00,5215.08923,N,00005.54551,W,1,07,1.17,60.6,M,45.8,M,,*7F
$GPGGA,105948.00,5215.08917,N,00005.54553,W,1,07,1.17,60.6,M,45.8,M,,*75
$GPGGA,105949.00,5215.08912,N,00005.54563,W,1,07,1.17,60.3,M,45.8,M,,*77
$GPGGA,105950.00,5215.08896,N,00005.54586,W,1,07,1.17,60.2,M,45.8,M,,*78
$GPGGA,105951.00,5215.08882,N,00005.54600,W,1,07,1.17,59.9,M,45.8,M,,*70
$GPGGA,105952.00,5215.08879,N,00005.54606,W,1,07,1.17,59.9,M,45.8,M,,*71
$GPGGA,105953.00,5215.08871,N,00005.54614,W,1,07,1.17,59.7,M,45.8,M,,*75
$GPGGA,105954.00,5215.08863,N,00005.54618,W,1,07,1.17,59.6,M,45.8,M,,*7C
$GPGGA,105955.00,5215.08857,N,00005.54624,W,1,07,1.17,59.7,M,45.8,M,,*74
$GPGGA,105956.00,5215.08845,N,00005.54637,W,1,07,1.17,59.6,M,45.8,M,,*77
$GPGGA,105957.00,5215.08840,N,00005.54642,W,1,07,1.17,59.6,M,45.8,M,,*71
$GPGGA,105958.00,5215.08834,N,00005.54635,W,1,07,1.17,59.5,M,45.8,M,,*7E
$GPGGA,105959.00,5215.08840,N,00005.54626,W,1,07,1.17,59.6,M,45.8,M,,*7D
$GPGGA,110000.00,5215.08846,N,00005.54624,W,1,07,1.17,59.5,M,45.8,M,,*7B
$GPGGA,110001.00,5215.08853,N,00005.54631,W,1,07,1.17,59.5,M,45.8,M,,*7A
$GPGGA,110002.00,5215.08855,N,00005.54634,W,1,07,1.17,59.6,M,45.8,M,,*79
$GPGGA,110003.00,5215.08861,N,00005.54625,W,1,07,1.17,59.5,M,45.8,M,,*7C
$GPGGA,110004.00,5215.08863,N,00005.54642,W,1,07,1.17,59.2,M,45.8,M,,*7F
$GPGGA,110005.00,5215.08869,N,00005.54638,W,1,07,1.17,59.0,M,45.8,M,,*7B
$GPGGA,110006.00,5215.08881,N,00005.54638,W,1,07,1.17,58.9,M,45.8,M,,*76
$GPGGA,110007.00,5215.08885,N,00005.54635,W,1,07,1.17,58.7,M,45.8,M,,*70
$GPGGA,110008.00,5215.08886,N,00005.54639,W,1,07,1.17,58.6,M,45.8,M,,*71
$GPGGA,110009.00,5215.08891,N,00005.54634,W,1,07,1.17,58.2,M,45.8,M,,*7F
$GPGGA,110010.00,5215.08898,N,00005.54640,W,1,07,1.17,58.1,M,45.8,M,,*7E
$GPGGA,110011.00,5215.08899,N,00005.54637,W,1,07,1.17,57.7,M,45.8,M,,*77
$GPGGA,110012.00,5215.08911,N,00005.54633,W,1,07,1.17,57.3,M,45.8,M,,*75
$GPGGA,110013.00,5215.08918,N,00005.54648,W,1,07,1.17,57.1,M,45.8,M,,*73
$GPGGA,110014.00,5215.08914,N,00005.54653,W,1,07,1.17,56.6,M,45.8,M,,*74
$GPGGA,110015.00,5215.08919,N,00005.54644,W,1,07,1.17,56.2,M,45.8,M,,*7A
$GPGGA,110016.00,5215.08921,N,00005.54628,W,1,07,1.17,55.8,M,45.8,M,,*71
$GPGGA,110017.00,5215.08922,N,00005.54613,W,1,07,1.17,55.6,M,45.8,M,,*75
$GPGGA,110018.00,5215.08937,N,00005.54585,W,1,07,1.17,55.5,M,45.8,M,,*71
$GPGGA,110019.00,5215.08947,N,00005.54574,W,1,07,1.17,55.3,M,45.8,M,,*7F
$GPGGA,110020.00,5215.08962,N,00005.54573,W,1,07,1.17,55.1,M,45.8,M,,*77
$GPGGA,110021.00,5215.08967,N,00005.54571,W,1,07,1.17,54.8,M,45.8,M,,*79
$GPGGA,110022.00,5215.08976,N,00005.54566,W,1,07,1.17,54.7,M,45.8,M,,*73
$GPGGA,110023.00,5215.08980,N,00005.54574,W,1,07,1.17,54.5,M,45.8,M,,*7A
$GPGGA,110024.00,5215.08991,N,00005.54576,W,1,07,1.17,54.3,M,45.8,M,,*79
$GPGGA,110025.00,5215.08999,N,00005.54597,W,1,07,1.17,54.4,M,45.8,M,,*78
$GPGGA,110026.00,5215.09003,N,00005.54633,W,1,07,1.17,54.1,M,45.8,M,,*78
$GPGGA,110027.00,5215.09023,N,00005.54645,W,1,07,1.17,54.2,M,45.8,M,,*79
$GPGGA,110028.00,5215.09045,N,00005.54644,W,1,07,1.17,54.5,M,45.8,M,,*70
$GPGGA,110029.00,5215.09050,N,00005.54652,W,1,07,1.17,54.9,M,45.8,M,,*7E
$GPGGA,110030.00,5215.09056,N,00005.54656,W,1,07,1.17,55.2,M,45.8,M,,*7E
$GPGGA,110031.00,5215.09070,N,00005.54661,W,1,07,1.17,55.4,M,45.8,M,,*79
$GPGGA,110032.00,5215.09078,N,00005.54660,W,1,07,1.17,55.3,M,45.8,M,,*74
$GPGGA,110033.00,5215.09083,N,00005.54666,W,1,07,1.17,54.8,M,45.8,M,,*7D
$GPGGA,110034.00,5215.09093,N,00005.54654,W,1,07,1.17,54.8,M,45.8,M,,*7A
$GPGGA,110035.00,5215.09105,N,00005.54640,W,1,07,1.17,54.7,M,45.8,M,,*7F
$GPGGA,110036.00,5215.09107,N,00005.54640,W,1,07,1.17,54.7,M,45.8,M,,*7E
$GPGGA,110037.00,5215.09111,N,00005.54639,W,1,07,1.17,55.1,M,45.8,M,,*71
$GPGGA,110038.00,5215.09114,N,00005.54638,W,1,07,1.17,55.5,M,45.8,M,,*7E
$GPGGA,110039.00,5215.09122,N,00005.54628,W,1,07,1.17,55.8,M,45.8,M,,*76
$GPGGA,110040.00,5215.09122,N,00005.54633,W,1,07,1.17,56.0,M,45.8,M,,*79
$GPGGA,110041.00,5215.09123,N,00005.54637,W,1,07,1.17,56.1,M,45.8,M,,*7C
$GPGGA,110042.00,5215.09130,N,00005.54623,W,1,07,1.17,56.2,M,45.8,M,,*7B
$GPGGA,110043.00,5215.09140,N,00005.54614,W,1,07,1.17,56.2,M,45.8,M,,*79
$GPGGA,110044.00,5215.09149,N,00005.54603,W,1,07,1.17,56.1,M,45.8,M,,*72
$GPGGA,110045.00,5215.09151,N,00005.54604,W,1,07,1.17,56.1,M,45.8,M,,*7D
$GPGGA,110046.00,5215.09149,N,00005.54613,W,1,07,1.17,56.1,M,45.8,M,,*71
$GPGGA,110047.00,5215.09149,N,00005.54618,W,1,07,1.17,56.1,M,45.8,M,,*7B
$GPGGA,110048.00,5215.09150,N,00005.54619,W,1,07,1.17,56.0,M,45.8,M,,*7C
$GPGGA,110049.00,5215.09145,N,00005.54622,W,1,07,1.17,55.8,M,45.8,M,,*7A
$GPGGA,110050.00,5215.09146,N,00005.54625,W,1,07,1.17,55.6,M,45.8,M,,*78
$GPGGA,110051.00,5215.09149,N,00005.54619,W,1,07,1.17,55.3,M,45.8,M,,*7C
$GPGGA,110052.00,5215.09153,N,00005.54626,W,1,07,1.17,55.7,M,45.8,M,,*7C
$GPGGA,110053.00,5215.09162,N,00005.54613,W,1,07,1.17,56.0,M,45.8,M,,*7D
$GPGGA,110054.00,5215.09177,N,00005.54619,W,1,07,1.17,56.5,M,45.8,M,,*71
$GPGGA,110055.00,5215.09191,N,00005.54644,W,1,07,1.17,57.0,M,45.8,M,,*74
$GPGGA,110056.00,5215.09190,N,00005.54648,W,1,07,1.17,57.3,M,45.8,M,,*79
$GPGGA,110057.00,5215.09190,N,00005.54649,W,1,07,1.17,57.2,M,45.8,M,,*78
$GPGGA,110058.00,5215.09192,N,00005.54633,W,1,07,1.17,56.9,M,45.8,M,,*72
$GPGGA,110059.00,5215.09196,N,00005.54627,W,1,07,1.17,56.7,M,45.8,M,,*7C
$GPGGA,110100.00,5215.09198,N,00005.54625,W,1,07,1.17,56.7,M,45.8,M,,*7D
$GPGGA,110101.00,5215.09213,N,00005.54606,W,1,07,1.17,57.0,M,45.8,M,,*7B
$GPGGA,110102.00,5215.09220,N,00005.54607,W,1,07,1.17,57.4,M,45.8,M,,*7D
$GPGGA,110103.00,5215.09222,N,00005.54616,W,1,07,1.17,57.7,M,45.8,M,,*7D
$GPGGA,110104.00,5215.09222,N,00005.54635,W,1,07,1.17,57.9,M,45.8,M,,*75
$GPGGA,110105.00,5215.09223,N,00005.54648,W,1,07,1.17,58.0,M,45.8,M,,*79
$GPGGA,110106.00,5215.09220,N,00005.54658,W,1,07,1.17,57.9,M,45.8,M,,*7E
$GPGGA,110107.00,5215.09216,N,00005.54671,W,1,07,1.17,57.7,M,45.8,M,,*7F
$GPGGA,110108.00,5215.09187,N,00005.54670,W,2,07,1.17,57.8,M,45.8,M,,0000*76
$GPGGA,110109.00,5215.09164,N,00005.54678,W,2,07,1.17,57.8,M,45.8,M,,0000*72
$GPGGA,110110.00,5215.09148,N,00005.54670,W,2,07,1.17,57.9,M,45.8,M,,0000*7D
$GPGGA,110111.00,5215.09133,N,00005.54663,W,2,07,1.17,58.3,M,45.8,M,,0000*77
$GPGGA,110112.00,5215.09117,N,00005.54659,W,2,07,1.17,58.2,M,45.8,M,,0000*7A
$GPGGA,110113.00,5215.09106,N,00005.54644,W,2,07,1.17,58.0,M,45.8,M,,0000*75
$GPGGA,110114.00,5215.09102,N,00005.54623,W,2,07,1.17,57.8,M,45.8,M,,0000*70
$GPGGA,110115.00,5215.09096,N,00005.54629,W,2,07,1.17,57.7,M,45.8,M,,0000*78
$GPGGA,110116.00,5215.09092,N,00005.54638,W,2,07,1.17,58.0,M,45.8,M,,0000*77
$GPGGA,110117.00,5215.09094,N,00005.54641,W,2,07,1.17,58.2,M,45.8,M,,0000*7C
$GPGGA,110118.00,5215.09101,N,00005.54642,W,2,07,1.17,58.8,M,45.8,M,,0000*77
$GPGGA,110119.00,5215.09102,N,00005.54642,W,2,07,1.17,59.2,M,45.8,M,,0000*7E
$GPGGA,110120.00,5215.09101,N,00005.54644,W,2,07,1.17,59.4,M,45.8,M,,0000*77
$GPGGA,110121.00,5215.09099,N,00005.54654,W,2,07,1.17,59.5,M,45.8,M,,0000*76
$GPGGA,110122.00,5215.09095,N,00005.54660,W,2,07,1.17,59.3,M,45.8,M,,0000*78
$GPGGA,110123.00,5215.09085,N,00005.54677,W,2,07,1.17,59.0,M,45.8,M,,0000*7D
$GPGGA,110124.00,5215.09082,N,00005.54677,W,2,07,1.17,58.6,M,45.8,M,,0000*7A
$GPGGA,110125.00,5215.09077,N,00005.54672,W,2,07,1.17,58.6,M,45.8,M,,0000*74
$GPGGA,110126.00,5215.09066,N,00005.54696,W,2,07,1.17,59.0,M,45.8,M,,0000*7A
$GPGGA,110127.00,5215.09062,N,00005.54706,W,2,07,1.17,59.3,M,45.8,M,,0000*74
$GPGGA,110128.00,5215.09062,N,00005.54707,W,2,07,1.17,59.4,M,45.8,M,,0000*7D
$GPGGA,110129.00,5215.09068,N,00005.54698,W,2,07,1.17,59.4,M,45.8,M,,0000*71
$GPGGA,110130.00,5215.09069,N,00005.54692,W,2,07,1.17,59.5,M,45.8,M,,0000*73
$GPGGA,110131.00,5215.09079,N,00005.54681,W,2,07,1.17,59.2,M,45.8,M,,0000*76
$GPGGA,110132.00,5215.09089,N,00005.54659,W,2,07,1.17,59.1,M,45.8,M,,0000*7C
$GPGGA,110133.00,5215.09094,N,00005.54647,W,2,07,1.17,59.1,M,45.8,M,,0000*7E
$GPGGA,110134.00,5215.09107,N,00005.54634,W,2,07,1.17,59.1,M,45.8,M,,0000*76
$GPGGA,110135.00,5215.09119,N,00005.54634,W,2,07,1.17,59.2,M,45.8,M,,0000*7B
$GPGGA,110136.00,5215.09124,N,00005.54613,W,2,07,1.17,59.4,M,45.8,M,,0000*75
$GPGGA,110137.00,5215.09126,N,00005.54606,W,2,07,1.17,59.4,M,45.8,M,,0000*72
$GPGGA,110138.00,5215.09129,N,00005.54607,W,2,07,1.17,59.3,M,45.8,M,,0000*74
$GPGGA,110139.00,5215.09139,N,00005.54593,W,2,07,1.17,59.1,M,45.8,M,,0000*78
$GPGGA,110140.00,5215.09164,N,00005.54591,W,2,07,1.17,58.5,M,45.8,M,,0000*79
$GPGGA,110141.00,5215.09193,N,00005.54570,W,2,07,1.17,58.1,M,45.8,M,,0000*7B
$GPGGA,110142.00,5215.09224,N,00005.54563,W,2,07,1.17,57.7,M,45.8,M,,0000*7C
$GPGGA,110143.00,5215.09234,N,00005.54567,W,2,07,1.17,57.8,M,45.8,M,,0000*77
$GPGGA,110144.00,5215.09251,N,00005.54570,W,2,07,1.17,57.6,M,45.8,M,,0000*7B
$GPGGA,110145.00,5215.09263,N,00005.54573,W,2,07,1.17,57.1,M,45.8,M,,0000*7F
$GPGGA,110146.00,5215.09272,N,00005.54576,W,2,07,1.17,56.5,M,45.8,M,,0000*7C
$GPGGA,110147.00,5215.09288,N,00005.54569,W,2,07,1.17,56.0,M,45.8,M,,0000*73
$GPGGA,110148.00,5215.09291,N,00005.54574,W,2,07,1.17,55.8,M,45.8,M,,0000*73
$GPGGA,110149.00,5215.09291,N,00005.54569,W,2,07,1.17,56.2,M,45.8,M,,0000*77
$GPGGA,110150.00,5215.09289,N,00005.54558,W,2,07,1.17,56.6,M,45.8,M,,0000*70
$GPGGA,110151.00,5215.09289,N,00005.54514,W,2,07,1.17,56.9,M,45.8,M,,0000*76
$GPGGA,110152.00,5215.09286,N,00005.54493,W,2,07,1.17,57.0,M,45.8,M,,0000*7C
$GPGGA,110153.00,5215.09288,N,00005.54503,W,2,07,1.17,57.0,M,45.8,M,,0000*7B
$GPGGA,110154.00,5215.09289,N,00005.54522,W,2,07,1.17,56.8,M,45.8,M,,0000*77
$GPGGA,110155.00,5215.09292,N,00005.54553,W,2,07,1.17,56.5,M,45.8,M,,0000*77
$GPGGA,110156.00,5215.09297,N,00005.54583,W,2,07,1.17,56.2,M,45.8,M,,0000*7B
$GPGGA,110157.00,5215.09279,N,00005.54631,W,2,07,1.17,56.3,M,45.8,M,,0000*71
$GPGGA,110158.00,5215.09254,N,00005.54667,W,2,07,1.17,56.6,M,45.8,M,,0000*77
$GPGGA,110159.00,5215.09231,N,00005.54663,W,2,07,1.17,57.2,M,45.8,M,,0000*74
$GPGGA,110200.00,5215.09207,N,00005.54637,W,2,07,1.17,57.5,M,45.8,M,,0000*78
$GPGGA,110201.00,5215.09184,N,00005.54635,W,2,07,1.17,57.9,M,45.8,M,,0000*7F
$GPGGA,110202.00,5215.09165,N,00005.54652,W,2,07,1.17,58.1,M,45.8,M,,0000*75
$GPGGA,110203.00,5215.09150,N,00005.54678,W,2,07,1.17,58.2,M,45.8,M,,0000*79
$GPGGA,110204.00,5215.09141,N,00005.54695,W,2,07,1.17,58.4,M,45.8,M,,0000*7B
$GPGGA,110205.00,5215.09131,N,00005.54708,W,2,07,1.17,58.4,M,45.8,M,,0000*78
$GPGGA,110206.00,5215.09115,N,00005.54737,W,2,07,1.17,58.6,M,45.8,M,,0000*73
$GPGGA,110207.00,5215.09104,N,00005.54754,W,2,07,1.17,58.6,M,45.8,M,,0000*77
$GPGGA,110208.00,5215.09095,N,00005.54771,W,2,07,1.17,58.3,M,45.8,M,,0000*73
$GPGGA,110209.00,5215.09092,N,00005.54786,W,2,07,1.17,57.8,M,45.8,M,,0000*79
$GPGGA,110210.00,5215.09087,N,00005.54803,W,2,07,1.17,57.2,M,45.8,M,,0000*7D
$GPGGA,110211.00,5215.09084,N,00005.54809,W,2,07,1.17,56.6,M,45.8,M,,0000*70
$GPGGA,110212.00,5215.09089,N,00005.54808,W,2,07,1.17,56.1,M,45.8,M,,0000*78
$GPGGA,110213.00,5215.09077,N,00005.54830,W,2,07,1.17,55.9,M,45.8,M,,0000*78
$GPGGA,110214.00,5215.09052,N,00005.54865,W,2,07,1.17,56.1,M,45.8,M,,0000*73
$GPGGA,110215.00,5215.09041,N,00005.54880,W,2,07,1.17,56.1,M,45.8,M,,0000*7B
$GPGGA,110216.00,5215.09027,N,00005.54898,W,2,07,1.17,56.1,M,45.8,M,,0000*71
$GPGGA,110217.00,5215.09020,N,00005.54916,W,2,07,1.17,56.5,M,45.8,M,,0000*74
$GPGGA,110218.00,5215.09010,N,00005.54948,W,2,07,1.17,56.9,M,45.8,M,,0000*7F
$GPGGA,110219.00,5215.09000,N,00005.54969,W,2,07,1.17,57.2,M,45.8,M,,0000*76
$GPGGA,110220.00,5215.08999,N,00005.54972,W,2,07,1.17,57.5,M,45.8,M,,0000*79
$GPGGA,110221.00,5215.08999,N,00005.54968,W,2,07,1.17,57.7,M,45.8,M,,0000*71
$GPGGA,110222.00,5215.08996,N,00005.54962,W,2,07,1.17,57.8,M,45.8,M,,0000*78
$GPGGA,110223.00,5215.08994,N,00005.54955,W,2,07,1.17,57.9,M,45.8,M,,0000*7E
$GPGGA,110224.00,5215.08981,N,00005.54955,W,2,07,1.17,57.7,M,45.8,M,,0000*73
$GPGGA,110225.00,5215.08970,N,00005.54946,W,2,07,1.17,57.5,M,45.8,M,,0000*7C
$GPGGA,110226.00,5215.08963,N,00005.54933,W,2,07,1.17,57.1,M,45.8,M,,0000*7B
$GPGGA,110227.00,5215.08949,N,00005.54925,W,2,07,1.17,56.7,M,45.8,M,,0000*72
$GPGGA,110228.00,5215.08945,N,00005.54926,W,2,07,1.17,56.6,M,45.8,M,,0000*73
$GPGGA,110229.00,5215.08949,N,00005.54913,W,2,07,1.17,56.2,M,45.8,M,,0000*7C
$GPGGA,110230.00,5215.08950,N,00005.54892,W,2,07,1.17,56.0,M,45.8,M,,0000*76
$GPGGA,110231.00,5215.08958,N,00005.54859,W,2,07,1.17,56.0,M,45.8,M,,0000*78
$GPGGA,110232.00,5215.08958,N,00005.54845,W,2,07,1.17,55.7,M,45.8,M,,0000*72
$GPGGA,110233.00,5215.08960,N,00005.54827,W,2,07,1.17,55.5,M,45.8,M,,0000*7E
$GPGGA,110234.00,5215.08953,N,00005.54804,W,2,07,1.17,54.8,M,45.8,M,,0000*74
$GPGGA,110235.00,5215.08947,N,00005.54787,W,2,07,1.17,54.4,M,45.8,M,,0000*78
$GPGGA,110236.00,5215.08933,N,00005.54802,W,2,07,1.17,54.2,M,45.8,M,,0000*7C
$GPGGA,110237.00,5215.08928,N,00005.54807,W,2,07,1.17,54.2,M,45.8,M,,0000*72
$GPGGA,110238.00,5215.08924,N,00005.54777,W,2,07,1.17,54.2,M,45.8,M,,0000*79
$GPGGA,110239.00,5215.08922,N,00005.54762,W,2,07,1.17,54.5,M,45.8,M,,0000*7D
$GPGGA,110240.00,5215.08913,N,00005.54755,W,2,07,1.17,54.3,M,45.8,M,,0000*73
$GPGGA,110241.00,5215.08901,N,00005.54754,W,2,07,1.17,54.1,M,45.8,M,,0000*72
$GPGGA,110242.00,5215.08886,N,00005.54741,W,2,07,1.17,53.9,M,45.8,M,,0000*74
$GPGGA,110243.00,5215.08848,N,00005.54733,W,2,07,1.17,53.5,M,45.8,M,,0000*7E
$GPGGA,110244.00,5215.08814,N,00005.54738,W,2,07,1.17,53.3,M,45.8,M,,0000*7D
$GPGGA,110245.00,5215.08783,N,00005.54753,W,2,07,1.17,53.2,M,45.8,M,,0000*71
$GPGGA,110246.00,5215.08765,N,00005.54758,W,2,07,1.17,53.2,M,45.8,M,,0000*71
$GPGGA,110247.00,5215.08745,N,00005.54762,W,2,07,1.17,53.2,M,45.8,M,,0000*7B
$GPGGA,110248.00,5215.08742,N,00005.54766,W,2,07,1.17,53.4,M,45.8,M,,0000*71
$GPGGA,110249.00,5215.08738,N,00005.54766,W,2,07,1.17,53.8,M,45.8,M,,0000*71
$GPGGA,110250.00,5215.08723,N,00005.54779,W,2,07,1.17,53.8,M,45.8,M,,0000*7D
$GPGGA,110251.00,5215.08709,N,00005.54778,W,2,07,1.17,53.8,M,45.8,M,,0000*75
$GPGGA,110252.00,5215.08709,N,00005.54754,W,2,07,1.17,54.0,M,45.8,M,,0000*77
$GPGGA,110253.00,5215.08702,N,00005.54744,W,2,07,1.17,53.9,M,45.8,M,,0000*72
$GPGGA,110254.00,5215.08699,N,00005.54744,W,2,07,1.17,53.8,M,45.8,M,,0000*77
$GPGGA,110255.00,5215.08690,N,00005.54757,W,2,07,1.17,53.6,M,45.8,M,,0000*73
$GPGGA,110256.00,5215.08690,N,00005.54775,W,2,07,1.17,54.0,M,45.8,M,,0000*71
$GPGGA,110257.00,5215.08687,N,00005.54805,W,2,07,1.17,54.2,M,45.8,M,,0000*7C
$GPGGA,110258.00,5215.08680,N,00005.54822,W,2,07,1.17,54.1,M,45.8,M,,0000*72
$GPGGA,110259.00,5215.08676,N,00005.54847,W,2,07,1.17,54.0,M,45.8,M,,0000*78
$GPGGA,110300.00,5215.08673,N,00005.54856,W,2,07,1.17,53.6,M,45.8,M,,0000*71
$GPGGA,110301.00,5215.08676,N,00005.54863,W,2,07,1.17,53.5,M,45.8,M,,0000*70
$GPGGA,110302.00,5215.08688,N,00005.54875,W,2,07,1.17,53.7,M,45.8,M,,0000*77
$GPGGA,110303.00,5215.08697,N,00005.54882,W,2,07,1.17,53.6,M,45.8,M,,0000*71
$GPGGA,110304.00,5215.08701,N,00005.54896,W,2,07,1.17,53.3,M,45.8,M,,0000*78
$GPGGA,110305.00,5215.08704,N,00005.54892,W,2,07,1.17,52.8,M,45.8,M,,0000*72
$GPGGA,110306.00,5215.08699,N,00005.54893,W,2,07,1.17,52.4,M,45.8,M,,0000*79
$GPGGA,110307.00,5215.08692,N,00005.54908,W,2,07,1.17,52.2,M,45.8,M,,0000*76
$GPGGA,110308.00,5215.08692,N,00005.54917,W,2,07,1.17,52.1,M,45.8,M,,0000*74
$GPGGA,110309.00,5215.08698,N,00005.54921,W,2,07,1.17,52.1,M,45.8,M,,0000*7A
$GPGGA,110310.00,5215.08711,N,00005.54917,W,2,07,1.17,52.1,M,45.8,M,,0000*77
$GPGGA,110311.00,5215.08724,N,00005.54932,W,2,07,1.17,52.1,M,45.8,M,,0000*77
$GPGGA,110312.00,5215.08739,N,00005.54931,W,2,07,1.17,51.9,M,45.8,M,,0000*70
$GPGGA,110313.00,5215.08750,N,00005.54920,W,2,07,1.17,51.6,M,45.8,M,,0000*71
$GPGGA,110314.00,5215.08753,N,00005.54927,W,2,06,1.51,51.2,M,45.8,M,,0000*75
$GPGGA,110315.00,5215.08767,N,00005.54930,W,2,06,1.51,51.0,M,45.8,M,,0000*77
$GPGGA,110316.00,5215.08772,N,00005.54944,W,2,06,1.51,50.7,M,45.8,M,,0000*75
$GPGGA,110317.00,5215.08785,N,00005.54933,W,2,07,1.51,50.6,M,45.8,M,,0000*7C
$GPGGA,110318.00,5215.08803,N,00005.54916,W,2,07,1.51,50.6,M,45.8,M,,0000*75
$GPGGA,110319.00,5215.08821,N,00005.54905,W,2,07,1.17,50.7,M,45.8,M,,0000*75
$GPGGA,110320.00,5215.08824,N,00005.54916,W,2,07,1.51,50.5,M,45.8,M,,0000*78
$GPGGA,110321.00,5215.08828,N,00005.54932,W,2,06,1.51,50.5,M,45.8,M,,0000*72
$GPGGA,110322.00,5215.08830,N,00005.54937,W,2,06,1.50,50.7,M,45.8,M,,0000*7E
$GPGGA,110323.00,5215.08842,N,00005.54944,W,2,06,1.50,50.8,M,45.8,M,,0000*71
$GPGGA,110324.00,5215.08849,N,00005.54947,W,2,06,1.50,50.9,M,45.8,M,,0000*7F
$GPGGA,110325.00,5215.08864,N,00005.54938,W,2,06,1.50,51.1,M,45.8,M,,0000*70
$GPGGA,110326.00,5215.08866,N,00005.54942,W,2,06,1.50,51.3,M,45.8,M,,0000*7E
$GPGGA,110327.00,5215.08868,N,00005.54941,W,2,06,1.50,51.7,M,45.8,M,,0000*76
$GPGGA,110328.00,5215.08881,N,00005.54942,W,2,06,1.50,52.5,M,45.8,M,,0000*7C
$GPGGA,110329.00,5215.08903,N,00005.54938,W,2,06,1.50,53.1,M,45.8,M,,0000*7E
$GPGGA,110330.00,5215.08937,N,00005.54900,W,2,06,1.50,54.2,M,45.8,M,,0000*7E
$GPGGA,110331.00,5215.08963,N,00005.54871,W,2,06,1.50,54.5,M,45.8,M,,0000*7E
$GPGGA,110332.00,5215.08985,N,00005.54844,W,2,06,1.50,54.8,M,45.8,M,,0000*7E
$GPGGA,110333.00,5215.08996,N,00005.54823,W,2,06,1.50,55.1,M,45.8,M,,0000*74
$GPGGA,110334.00,5215.09020,N,00005.54789,W,2,06,1.50,55.7,M,45.8,M,,0000*7F
$GPGGA,110335.00,5215.09044,N,00005.54772,W,2,06,1.50,56.7,M,45.8,M,,0000*7B
$GPGGA,110336.00,5215.09068,N,00005.54762,W,2,06,1.50,57.7,M,45.8,M,,0000*76
$GPGGA,110337.00,5215.09080,N,00005.54748,W,2,06,1.50,58.3,M,45.8,M,,0000*72
$GPGGA,110338.00,5215.09086,N,00005.54754,W,2,06,1.50,58.7,M,45.8,M,,0000*72
$GPGGA,110339.00,5215.09086,N,00005.54754,W,2,06,1.50,59.2,M,45.8,M,,0000*77
$GPGGA,110340.00,5215.09066,N,00005.54764,W,2,06,1.50,59.4,M,45.8,M,,0000*72
$GPGGA,110341.00,5215.09031,N,00005.54778,W,2,06,1.50,59.3,M,45.8,M,,0000*7B
$GPGGA,110342.00,5215.09007,N,00005.54774,W,2,07,1.50,59.1,M,45.8,M,,0000*72
$GPGGA,110343.00,5215.08982,N,00005.54789,W,2,07,1.50,58.9,M,45.8,M,,0000*7D
$GPGGA,110344.00,5215.08968,N,00005.54799,W,2,06,1.50,58.8,M,45.8,M,,0000*7F
$GPGGA,110345.00,5215.08957,N,00005.54814,W,2,06,1.50,58.9,M,45.8,M,,0000*79
$GPGGA,110346.00,5215.08931,N,00005.54816,W,2,06,1.50,58.7,M,45.8,M,,0000*76
$GPGGA,110347.00,5215.08909,N,00005.54808,W,2,07,1.50,58.2,M,45.8,M,,0000*77
$GPGGA,110348.00,5215.08892,N,00005.54815,W,2,07,1.50,58.0,M,45.8,M,,0000*75
$GPGGA,110349.00,5215.08876,N,00005.54830,W,2,07,1.17,57.6,M,45.8,M,,0000*73
$GPGGA,110350.00,5215.08876,N,00005.54839,W,2,07,1.17,57.3,M,45.8,M,,0000*77
$GPGGA,110351.00,5215.08879,N,00005.54850,W,2,07,1.17,57.2,M,45.8,M,,0000*77
$GPGGA,110352.00,5215.08874,N,00005.54864,W,2,08,1.08,57.2,M,45.8,M,,0000*7F
$GPGGA,110353.00,5215.08873,N,00005.54871,W,2,07,1.18,56.9,M,45.8,M,,0000*79
$GPGGA,110354.00,5215.08876,N,00005.54881,W,2,07,1.18,56.7,M,45.8,M,,0000*7A
$GPGGA,110355.00,5215.08877,N,00005.54894,W,2,07,1.18,56.4,M,45.8,M,,0000*7D
$GPGGA,110356.00,5215.08878,N,00005.54894,W,2,08,1.18,56.2,M,45.8,M,,0000*78
$GPGGA,110357.00,5215.08875,N,00005.54913,W,2,07,1.18,55.8,M,45.8,M,,0000*7C
$GPGGA,110358.00,5215.08880,N,00005.54927,W,2,07,1.18,55.6,M,45.8,M,,0000*70
$GPGGA,110359.00,5215.08897,N,00005.54929,W,2,07,1.18,55.9,M,45.8,M,,0000*76
$GPGGA,110400.00,5215.08922,N,00005.54919,W,2,07,1.18,56.5,M,45.8,M,,0000*7E
$GPGGA,110401.00,5215.08945,N,00005.54921,W,2,07,1.18,56.7,M,45.8,M,,0000*77
$GPGGA,110402.00,5215.08957,N,00005.54930,W,2,08,1.18,57.1,M,45.8,M,,0000*7F
$GPGGA,110403.00,5215.08966,N,00005.54928,W,2,08,1.18,57.5,M,45.8,M,,0000*71
$GPGGA,110404.00,5215.08984,N,00005.54923,W,2,08,1.18,57.6,M,45.8,M,,0000*72
$GPGGA,110405.00,5215.09004,N,00005.54910,W,2,07,1.18,57.6,M,45.8,M,,0000*7C
$GPGGA,110406.00,5215.09032,N,00005.54903,W,2,07,1.18,56.8,M,45.8,M,,0000*77
$GPGGA,110407.00,5215.09054,N,00005.54901,W,2,07,1.18,56.1,M,45.8,M,,0000*7D
$GPGGA,110408.00,5215.09068,N,00005.54910,W,2,07,1.18,55.8,M,45.8,M,,0000*77
$GPGGA,110409.00,5215.09082,N,00005.54919,W,2,07,1.18,55.1,M,45.8,M,,0000*72
$GPGGA,110410.00,5215.09084,N,00005.54905,W,2,07,1.18,54.7,M,45.8,M,,0000*76
$GPGGA,110411.00,5215.09091,N,00005.54896,W,2,07,1.18,54.7,M,45.8,M,,0000*78
$GPGGA,110412.00,5215.09108,N,00005.54903,W,2,07,1.18,55.1,M,45.8,M,,0000*70
$GPGGA,110413.00,5215.09117,N,00005.54897,W,2,07,1.18,55.8,M,45.8,M,,0000*7A
$GPGGA,110414.00,5215.09126,N,00005.54879,W,2,07,1.18,56.5,M,45.8,M,,0000*71
$GPGGA,110415.00,5215.09154,N,00005.54867,W,2,07,1.18,56.8,M,45.8,M,,0000*77
$GPGGA,110416.00,5215.09174,N,00005.54859,W,2,07,1.18,57.4,M,45.8,M,,0000*76
$GPGGA,110417.00,5215.09184,N,00005.54856,W,2,07,1.18,57.7,M,45.8,M,,0000*74
$GPGGA,110418.00,5215.09185,N,00005.54859,W,2,07,1.18,58.4,M,45.8,M,,0000*79
$GPGGA,110419.00,5215.09185,N,00005.54843,W,2,07,1.18,58.7,M,45.8,M,,0000*70
$GPGGA,110420.00,5215.09184,N,00005.54837,W,2,08,1.18,58.5,M,45.8,M,,0000*75
$GPGGA,110421.00,5215.09181,N,00005.54847,W,2,07,1.18,58.5,M,45.8,M,,0000*79
$GPGGA,110422.00,5215.09181,N,00005.54840,W,2,07,1.18,58.5,M,45.8,M,,0000*7D
$GPGGA,110423.00,5215.09176,N,00005.54841,W,2,07,1.18,58.7,M,45.8,M,,0000*77
$GPGGA,110424.00,5215.09178,N,00005.54846,W,2,07,1.18,59.1,M,45.8,M,,0000*7E
$GPGGA,110425.00,5215.09176,N,00005.54840,W,2,07,1.18,59.1,M,45.8,M,,0000*77
$GPGGA,110426.00,5215.09174,N,00005.54834,W,2,07,1.18,59.2,M,45.8,M,,0000*76
$GPGGA,110427.00,5215.09169,N,00005.54831,W,2,08,1.18,59.2,M,45.8,M,,0000*71
$GPGGA,110428.00,5215.09156,N,00005.54832,W,2,07,1.18,58.9,M,45.8,M,,0000*74
$GPGGA,110429.00,5215.09152,N,00005.54834,W,2,07,1.18,58.6,M,45.8,M,,0000*78
$GPGGA,110430.00,5215.09165,N,00005.54831,W,2,07,1.18,58.9,M,45.8,M,,0000*7E
$GPGGA,110431.00,5215.09145,N,00005.54847,W,2,08,1.18,58.7,M,45.8,M,,0000*7D
$GPGGA,110432.00,5215.09124,N,00005.54853,W,2,08,1.18,58.1,M,45.8,M,,0000*7A
$GPGGA,110433.00,5215.09107,N,00005.54869,W,2,07,1.18,57.4,M,45.8,M,,0000*76
$GPGGA,110434.00,5215.09071,N,00005.54887,W,2,09,1.11,56.9,M,45.8,M,,0000*7A
$GPGGA,110435.00,5215.09048,N,00005.54885,W,2,08,1.11,56.3,M,45.8,M,,0000*78
$GPGGA,110436.00,5215.09037,N,00005.54856,W,2,08,1.11,55.8,M,45.8,M,,0000*75
$GPGGA,110437.00,5215.09020,N,00005.54845,W,2,08,1.11,55.2,M,45.8,M,,0000*7A
$GPGGA,110438.00,5215.08999,N,00005.54857,W,2,08,1.11,54.9,M,45.8,M,,0000*76
$GPGGA,110439.00,5215.08990,N,00005.54863,W,2,08,1.11,55.0,M,45.8,M,,0000*71
$GPGGA,110440.00,5215.08992,N,00005.54865,W,2,08,1.11,55.2,M,45.8,M,,0000*79
$GPGGA,110441.00,5215.08993,N,00005.54871,W,2,09,1.24,55.5,M,45.8,M,,0000*7C
$GPGGA,110442.00,5215.09010,N,00005.54865,W,2,08,1.24,56.4,M,45.8,M,,0000*7A
$GPGGA,110443.00,5215.09011,N,00005.54858,W,2,08,1.13,56.8,M,45.8,M,,0000*7C
$GPGGA,110444.00,5215.09007,N,00005.54861,W,2,08,1.13,56.6,M,45.8,M,,0000*78
$GPGGA,110445.00,5215.08995,N,00005.54863,W,2,09,1.13,56.4,M,45.8,M,,0000*7B
$GPGGA,110446.00,5215.08977,N,00005.54863,W,2,08,1.13,56.2,M,45.8,M,,0000*73
$GPGGA,110447.00,5215.08971,N,00005.54852,W,2,08,1.13,56.1,M,45.8,M,,0000*75
$GPGGA,110448.00,5215.08962,N,00005.54852,W,2,08,1.13,55.8,M,45.8,M,,0000*72
$GPGGA,110449.00,5215.08949,N,00005.54853,W,2,08,1.13,55.4,M,45.8,M,,0000*77
$GPGGA,110450.00,5215.08940,N,00005.54842,W,2,09,1.13,55.3,M,45.8,M,,0000*70
$GPGGA,110451.00,5215.08933,N,00005.54836,W,2,09,1.13,55.2,M,45.8,M,,0000*77
$GPGGA,110452.00,5215.08935,N,00005.54832,W,2,09,1.13,55.1,M,45.8,M,,0000*75
$GPGGA,110453.00,5215.08941,N,00005.54820,W,2,09,1.13,55.2,M,45.8,M,,0000*77
$GPGGA,110454.00,5215.08944,N,00005.54801,W,2,09,1.05,55.2,M,45.8,M,,0000*71
$GPGGA,110455.00,5215.08943,N,00005.54786,W,2,09,1.05,55.2,M,45.8,M,,0000*77
$GPGGA,110456.00,5215.08935,N,00005.54780,W,2,09,1.05,55.0,M,45.8,M,,0000*71
$GPGGA,110457.00,5215.08940,N,00005.54779,W,2,09,1.05,55.2,M,45.8,M,,0000*76
$GPGGA,110458.00,5215.08951,N,00005.54765,W,2,09,1.05,55.4,M,45.8,M,,0000*72
$GPGGA,110459.00,5215.08967,N,00005.54738,W,2,09,1.05,55.5,M,45.8,M,,0000*7F
$GPGGA,110500.00,5215.08982,N,00005.54712,W,2,09,1.05,55.8,M,45.8,M,,0000*7C
$GPGGA,110501.00,5215.08997,N,00005.54699,W,2,09,1.05,56.1,M,45.8,M,,0000*71
$GPGGA,110502.00,5215.09007,N,00005.54694,W,2,09,1.05,56.4,M,45.8,M,,0000*7B
$GPGGA,110503.00,5215.09008,N,00005.54690,W,2,09,1.05,56.4,M,45.8,M,,0000*71
$GPGGA,110504.00,5215.09016,N,00005.54680,W,2,09,1.05,56.6,M,45.8,M,,0000*7A
$GPGGA,110505.00,5215.09011,N,00005.54676,W,2,09,1.05,56.4,M,45.8,M,,0000*77
$GPGGA,110506.00,5215.09004,N,00005.54647,W,2,09,1.05,56.4,M,45.8,M,,0000*72
$GPGGA,110507.00,5215.09002,N,00005.54639,W,2,09,1.05,56.4,M,45.8,M,,0000*7C
$GPGGA,110508.00,5215.09000,N,00005.54632,W,2,09,1.05,56.7,M,45.8,M,,0000*79
$GPGGA,110509.00,5215.09005,N,00005.54624,W,2,09,1.05,57.1,M,45.8,M,,0000*7D
$GPGGA,110510.00,5215.08997,N,00005.54615,W,2,09,1.05,57.1,M,45.8,M,,0000*74
$GPGGA,110511.00,5215.08993,N,00005.54601,W,2,09,1.05,57.1,M,45.8,M,,0000*74
$GPGGA,110512.00,5215.09000,N,00005.54598,W,2,09,1.05,57.1,M,45.8,M,,0000*76
$GPGGA,110513.00,5215.08991,N,00005.54599,W,2,09,1.05,56.8,M,45.8,M,,0000*7E
$GPGGA,110514.00,5215.08989,N,00005.54595,W,2,09,1.05,56.6,M,45.8,M,,0000*72
$GPGGA,110515.00,5215.08992,N,00005.54590,W,2,09,1.05,56.6,M,45.8,M,,0000*7C
$GPGGA,110516.00,5215.08984,N,00005.54605,W,2,09,1.05,56.5,M,45.8,M,,0000*74
$GPGGA,110517.00,5215.08977,N,00005.54601,W,2,09,1.05,56.4,M,45.8,M,,0000*7C
$GPGGA,110518.00,5215.08968,N,00005.54599,W,2,09,1.05,56.3,M,45.8,M,,0000*78
$GPGGA,110519.00,5215.08958,N,00005.54591,W,2,09,1.05,56.1,M,45.8,M,,0000*70
$GPGGA,110520.00,5215.08943,N,00005.54592,W,2,09,1.05,56.0,M,45.8,M,,0000*72
$GPGGA,110521.00,5215.08929,N,00005.54590,W,2,09,1.05,55.6,M,45.8,M,,0000*78
$GPGGA,110522.00,5215.08926,N,00005.54583,W,2,09,1.05,55.4,M,45.8,M,,0000*74
$GPGGA,110523.00,5215.08918,N,00005.54596,W,2,09,1.05,55.2,M,45.8,M,,0000*7A
$GPGGA,110524.00,5215.08908,N,00005.54593,W,2,09,1.05,55.1,M,45.8,M,,0000*7A
$GPGGA,110525.00,5215.08915,N,00005.54567,W,2,09,1.05,55.5,M,45.8,M,,0000*78
$GPGGA,110526.00,5215.08919,N,00005.54555,W,2,09,1.05,55.8,M,45.8,M,,0000*7B
$GPGGA,110527.00,5215.08910,N,00005.54560,W,2,08,1.13,55.7,M,45.8,M,,0000*7C
$GPGGA,110528.00,5215.08909,N,00005.54574,W,2,08,1.13,56.0,M,45.8,M,,0000*7A
$GPGGA,110529.00,5215.08913,N,00005.54586,W,2,08,1.13,56.3,M,45.8,M,,0000*7E
$GPGGA,110530.00,5215.08912,N,00005.54590,W,2,08,1.13,56.6,M,45.8,M,,0000*75
$GPGGA,110531.00,5215.08911,N,00005.54585,W,2,08,1.13,56.8,M,45.8,M,,0000*7D
$GPGGA,110532.00,5215.08913,N,00005.54567,W,2,08,1.13,57.1,M,45.8,M,,0000*78
$GPGGA,110533.00,5215.08920,N,00005.54553,W,2,08,1.13,57.5,M,45.8,M,,0000*7A
$GPGGA,110534.00,5215.08934,N,00005.54535,W,2,08,1.13,58.0,M,45.8,M,,0000*72
$GPGGA,110535.00,5215.08952,N,00005.54500,W,2,08,1.13,58.4,M,45.8,M,,0000*71
$GPGGA,110536.00,5215.08962,N,00005.54468,W,2,08,1.13,58.7,M,45.8,M,,0000*7D
$GPGGA,110537.00,5215.08962,N,00005.54448,W,2,08,1.13,58.8,M,45.8,M,,0000*71
$GPGGA,110538.00,5215.08956,N,00005.54445,W,2,08,1.13,58.8,M,45.8,M,,0000*74
$GPGGA,110539.00,5215.08952,N,00005.54430,W,2,09,1.13,58.6,M,45.8,M,,0000*7C
$GPGGA,110540.00,5215.08950,N,00005.54423,W,2,09,1.13,58.5,M,45.8,M,,0000*71
$GPGGA,110541.00,5215.08945,N,00005.54414,W,2,09,1.13,58.7,M,45.8,M,,0000*72
$GPGGA,110542.00,5215.08940,N,00005.54405,W,2,09,1.13,58.9,M,45.8,M,,0000*7A
$GPGGA,110543.00,5215.08935,N,00005.54409,W,2,09,1.13,59.3,M,45.8,M,,0000*7E
$GPGGA,110544.00,5215.08925,N,00005.54423,W,2,09,1.13,59.5,M,45.8,M,,0000*76
$GPGGA,110545.00,5215.08916,N,00005.54438,W,2,09,1.13,59.6,M,45.8,M,,0000*7E
$GPGGA,110546.00,5215.08902,N,00005.54451,W,2,08,1.13,59.5,M,45.8,M,,0000*75
$GPGGA,110547.00,5215.08896,N,00005.54465,W,2,09,1.13,59.8,M,45.8,M,,0000*73
$GPGGA,110548.00,5215.08892,N,00005.54477,W,2,09,1.13,59.8,M,45.8,M,,0000*7B
$GPGGA,110549.00,5215.08897,N,00005.54484,W,2,09,1.13,60.0,M,45.8,M,,0000*71
$GPGGA,110550.00,5215.08909,N,00005.54479,W,2,09,1.05,60.4,M,45.8,M,,0000*7E
$GPGGA,110551.00,5215.08920,N,00005.54471,W,2,09,1.05,61.0,M,45.8,M,,0000*79
$GPGGA,110552.00,5215.08918,N,00005.54475,W,2,09,1.06,61.4,M,45.8,M,,0000*72
$GPGGA,110553.00,5215.08909,N,00005.54483,W,2,09,1.06,61.5,M,45.8,M,,0000*7B
$GPGGA,110554.00,5215.08898,N,00005.54491,W,2,09,1.06,61.7,M,45.8,M,,0000*74
$GPGGA,110555.00,5215.08888,N,00005.54497,W,2,09,1.06,61.5,M,45.8,M,,0000*70
$GPGGA,110556.00,5215.08876,N,00005.54518,W,2,09,1.06,61.5,M,45.8,M,,0000*74
$GPGGA,110557.00,5215.08875,N,00005.54532,W,2,09,1.06,61.6,M,45.8,M,,0000*7D
$GPGGA,110558.00,5215.08875,N,00005.54544,W,2,09,1.06,61.7,M,45.8,M,,0000*72
$GPGGA,110559.00,5215.08876,N,00005.54546,W,2,09,1.06,61.8,M,45.8,M,,0000*7D
$GPGGA,110600.00,5215.08882,N,00005.54551,W,2,09,1.06,62.0,M,45.8,M,,0000*74
$GPGGA,110601.00,5215.08887,N,00005.54560,W,2,09,1.06,62.2,M,45.8,M,,0000*70
$GPGGA,110602.00,5215.08891,N,00005.54565,W,2,09,1.06,62.4,M,45.8,M,,0000*77
$GPGGA,110603.00,5215.08894,N,00005.54571,W,2,09,1.06,62.6,M,45.8,M,,0000*74
$GPGGA,110604.00,5215.08902,N,00005.54593,W,2,09,1.13,64.2,M,45.8,M,,0000*77
$GPGGA,110605.00,5215.09049,N,00005.54509,W,2,09,1.06,68.9,M,45.8,M,,0000*71
$GPGGA,110606.00,5215.09092,N,00005.54493,W,2,09,1.06,70.2,M,45.8,M,,0000*74
$GPGGA,110607.00,5215.09089,N,00005.54498,W,2,09,1.06,69.9,M,45.8,M,,0000*77
$GPGGA,110608.00,5215.09069,N,00005.54512,W,2,09,1.06,69.1,M,45.8,M,,0000*7D
$GPGGA,110609.00,5215.09055,N,00005.54522,W,2,09,1.06,68.2,M,45.8,M,,0000*72
$GPGGA,110610.00,5215.09046,N,00005.54533,W,2,09,1.06,67.7,M,45.8,M,,0000*72
$GPGGA,110611.00,5215.09030,N,00005.54538,W,2,09,1.06,66.7,M,45.8,M,,0000*78
$GPGGA,110612.00,5215.09018,N,00005.54545,W,2,09,1.06,65.8,M,45.8,M,,0000*77
$GPGGA,110613.00,5215.09009,N,00005.54551,W,2,09,1.06,65.2,M,45.8,M,,0000*79
$GPGGA,110614.00,5215.09004,N,00005.54557,W,2,09,1.06,64.6,M,45.8,M,,0000*70
$GPGGA,110615.00,5215.08994,N,00005.54558,W,2,09,1.06,64.2,M,45.8,M,,0000*7B
$GPGGA,110616.00,5215.08974,N,00005.54556,W,2,09,1.06,63.5,M,45.8,M,,0000*78
$GPGGA,110617.00,5215.08951,N,00005.54573,W,2,09,1.06,62.8,M,45.8,M,,0000*75
$GPGGA,110618.00,5215.08925,N,00005.54586,W,2,09,1.06,61.8,M,45.8,M,,0000*70
$GPGGA,110619.00,5215.08902,N,00005.54606,W,2,09,1.06,61.1,M,45.8,M,,0000*76
$GPGGA,110620.00,5215.08887,N,00005.54616,W,2,09,1.06,60.6,M,45.8,M,,0000*77
$GPGGA,110621.00,5215.08876,N,00005.54619,W,2,09,1.06,60.3,M,45.8,M,,0000*72
$GPGGA,110622.00,5215.08866,N,00005.54612,W,2,09,1.06,59.8,M,45.8,M,,0000*7A
$GPGGA,110623.00,5215.08867,N,00005.54607,W,2,09,1.06,59.6,M,45.8,M,,0000*70
$GPGGA,110624.00,5215.08865,N,00005.54608,W,2,09,1.06,59.2,M,45.8,M,,0000*7E
$GPGGA,110625.00,5215.08872,N,00005.54606,W,2,09,1.06,59.1,M,45.8,M,,0000*74
$GPGGA,110626.00,5215.08913,N,00005.54541,W,2,09,1.06,58.6,M,45.8,M,,0000*77
$GPGGA,110627.00,5215.08943,N,00005.54456,W,2,08,1.11,56.6,M,45.8,M,,0000*7D
$GPGGA,110628.00,5215.08943,N,00005.54436,W,2,08,1.24,55.5,M,45.8,M,,0000*72
$GPGGA,110629.00,5215.08926,N,00005.54465,W,2,09,1.13,55.7,M,45.8,M,,0000*71
$GPGGA,110630.00,5215.08923,N,00005.54489,W,2,09,1.06,56.6,M,45.8,M,,0000*78
$GPGGA,110631.00,5215.08929,N,00005.54514,W,2,09,1.06,57.6,M,45.8,M,,0000*77
$GPGGA,110632.00,5215.08933,N,00005.54516,W,2,09,1.06,58.3,M,45.8,M,,0000*77
$GPGGA,110633.00,5215.08942,N,00005.54526,W,2,09,1.06,58.9,M,45.8,M,,0000*79
$GPGGA,110634.00,5215.08959,N,00005.54533,W,2,09,1.06,59.6,M,45.8,M,,0000*7E
$GPGGA,110635.00,5215.08967,N,00005.54546,W,2,09,1.06,60.0,M,45.8,M,,0000*7C
$GPGGA,110636.00,5215.08968,N,00005.54560,W,2,09,1.06,60.2,M,45.8,M,,0000*76
$GPGGA,110637.00,5215.08967,N,00005.54578,W,2,09,1.06,60.4,M,45.8,M,,0000*77
$GPGGA,110638.00,5215.08966,N,00005.54600,W,2,09,1.06,60.6,M,45.8,M,,0000*77
$GPGGA,110639.00,5215.08968,N,00005.54627,W,2,09,1.06,60.6,M,45.8,M,,0000*7D
$GPGGA,110640.00,5215.08968,N,00005.54640,W,2,09,1.06,60.7,M,45.8,M,,0000*73
$GPGGA,110641.00,5215.08981,N,00005.54641,W,2,09,1.06,61.0,M,45.8,M,,0000*72
$GPGGA,110642.00,5215.08994,N,00005.54634,W,2,09,1.06,61.1,M,45.8,M,,0000*76
$GPGGA,110643.00,5215.09015,N,00005.54625,W,2,09,1.06,61.4,M,45.8,M,,0000*73
$GPGGA,110644.00,5215.09044,N,00005.54612,W,2,09,1.06,61.9,M,45.8,M,,0000*79
$GPGGA,110645.00,5215.09069,N,00005.54590,W,2,09,1.06,62.3,M,45.8,M,,0000*77
$GPGGA,110646.00,5215.09085,N,00005.54578,W,2,09,1.06,62.6,M,45.8,M,,0000*75
$GPGGA,110647.00,5215.09103,N,00005.54559,W,2,09,1.06,62.9,M,45.8,M,,0000*77
$GPGGA,110648.00,5215.09116,N,00005.54535,W,2,09,1.06,63.1,M,45.8,M,,0000*7F
$GPGGA,110649.00,5215.09133,N,00005.54527,W,2,09,1.06,63.5,M,45.8,M,,0000*7E
$GPGGA,110650.00,5215.09130,N,00005.54537,W,2,09,1.06,63.4,M,45.8,M,,0000*75
$GPGGA,110651.00,5215.09137,N,00005.54546,W,2,09,1.06,63.5,M,45.8,M,,0000*74
$GPGGA,110652.00,5215.09142,N,00005.54553,W,2,09,1.06,63.6,M,45.8,M,,0000*72
$GPGGA,110653.00,5215.09136,N,00005.54561,W,2,09,1.06,63.4,M,45.8,M,,0000*73
$GPGGA,110654.00,5215.09129,N,00005.54561,W,2,09,1.06,63.4,M,45.8,M,,0000*7A
$GPGGA,110655.00,5215.09141,N,00005.54549,W,2,09,1.06,63.9,M,45.8,M,,0000*72
$GPGGA,110656.00,5215.09130,N,00005.54537,W,2,09,1.06,63.7,M,45.8,M,,0000*70
$GPGGA,110657.00,5215.09116,N,00005.54529,W,2,09,1.06,63.7,M,45.8,M,,0000*7A
$GPGGA,110658.00,5215.09087,N,00005.54528,W,2,09,1.06,63.2,M,45.8,M,,0000*78
$GPGGA,110659.00,5215.09090,N,00005.54518,W,2,09,1.06,63.5,M,45.8,M,,0000*7B
$GPGGA,110700.00,5215.09095,N,00005.54516,W,2,09,1.06,63.6,M,45.8,M,,0000*7E
$GPGGA,110701.00,5215.09086,N,00005.54533,W,2,09,1.06,63.3,M,45.8,M,,0000*7F
$GPGGA,110702.00,5215.09095,N,00005.54525,W,2,09,1.06,63.4,M,45.8,M,,0000*7E
$GPGGA,110703.00,5215.09076,N,00005.54515,W,2,09,1.06,62.9,M,45.8,M,,0000*7D
$GPGGA,110704.00,5215.09084,N,00005.54525,W,2,09,1.06,63.5,M,45.8,M,,0000*79
$GPGGA,110705.00,5215.09062,N,00005.54557,W,2,09,1.06,63.4,M,45.8,M,,0000*74
$GPGGA,110706.00,5215.08915,N,00005.54636,W,2,09,1.06,59.9,M,45.8,M,,0000*7F
$GPGGA,110707.00,5215.08896,N,00005.54659,W,2,09,1.88,59.2,M,45.8,M,,0000*70
$GPGGA,110708.00,5215.08869,N,00005.54708,W,2,08,1.88,59.1,M,45.8,M,,0000*78
$GPGGA,110709.00,5215.08905,N,00005.54702,W,2,09,1.06,58.1,M,45.8,M,,0000*7E
$GPGGA,110710.00,5215.08927,N,00005.54687,W,2,09,1.06,57.4,M,45.8,M,,0000*70
$GPGGA,110711.00,5215.08935,N,00005.54677,W,2,09,1.06,56.8,M,45.8,M,,0000*70
$GPGGA,110712.00,5215.08935,N,00005.54668,W,2,09,1.06,56.3,M,45.8,M,,0000*76
$GPGGA,110713.00,5215.08921,N,00005.54670,W,2,09,1.06,55.6,M,45.8,M,,0000*7D
$GPGGA,110714.00,5215.08909,N,00005.54668,W,2,09,1.06,54.9,M,45.8,M,,0000*77
$GPGGA,110715.00,5215.08899,N,00005.54666,W,2,09,1.06,54.4,M,45.8,M,,0000*7D
$GPGGA,110716.00,5215.08886,N,00005.54662,W,2,09,1.06,54.2,M,45.8,M,,0000*72
$GPGGA,110717.00,5215.08882,N,00005.54659,W,2,09,1.06,54.2,M,45.8,M,,0000*7F
$GPGGA,110718.00,5215.08883,N,00005.54645,W,2,09,1.06,54.2,M,45.8,M,,0000*7C
$GPGGA,110719.00,5215.08884,N,00005.54636,W,2,09,1.06,54.1,M,45.8,M,,0000*7D
$GPGGA,110720.00,5215.08873,N,00005.54644,W,2,09,1.06,53.6,M,45.8,M,,0000*7A
$GPGGA,110721.00,5215.08880,N,00005.54647,W,2,09,1.06,53.6,M,45.8,M,,0000*74
$GPGGA,110722.00,5215.08879,N,00005.54634,W,2,09,1.06,53.6,M,45.8,M,,0000*75
$GPGGA,110723.00,5215.08886,N,00005.54627,W,2,09,1.06,53.8,M,45.8,M,,0000*78
$GPGGA,110724.00,5215.08891,N,00005.54627,W,2,09,1.06,53.9,M,45.8,M,,0000*78
$GPGGA,110725.00,5215.08892,N,00005.54617,W,2,09,1.06,54.0,M,45.8,M,,0000*77
$GPGGA,110726.00,5215.08882,N,00005.54602,W,2,09,1.06,54.0,M,45.8,M,,0000*71
$GPGGA,110727.00,5215.08875,N,00005.54588,W,2,09,1.06,53.9,M,45.8,M,,0000*77
$GPGGA,110728.00,5215.08869,N,00005.54581,W,2,09,1.06,53.8,M,45.8,M,,0000*7D
$GPGGA,110729.00,5215.08869,N,00005.54583,W,2,09,1.06,53.7,M,45.8,M,,0000*71
$GPGGA,110730.00,5215.08869,N,00005.54591,W,2,09,1.06,53.5,M,45.8,M,,0000*78
$GPGGA,110731.00,5215.08876,N,00005.54585,W,2,09,1.06,53.5,M,45.8,M,,0000*72
$GPGGA,110732.00,5215.08869,N,00005.54574,W,2,09,1.06,53.3,M,45.8,M,,0000*77
$GPGGA,110733.00,5215.08859,N,00005.54567,W,2,09,1.06,53.0,M,45.8,M,,0000*74
$GPGGA,110734.00,5215.08849,N,00005.54559,W,2,09,1.06,52.4,M,45.8,M,,0000*7A
$GPGGA,110735.00,5215.08838,N,00005.54559,W,2,09,1.06,51.9,M,45.8,M,,0000*73
$GPGGA,110736.00,5215.08856,N,00005.54584,W,2,09,1.06,50.9,M,45.8,M,,0000*79
$GPGGA,110737.00,5215.08853,N,00005.54565,W,2,09,1.06,50.6,M,45.8,M,,0000*7D
$GPGGA,110738.00,5215.08849,N,00005.54555,W,2,09,1.06,50.3,M,45.8,M,,0000*7F
$GPGGA,110739.00,5215.09215,N,00005.54654,W,2,08,1.13,50.7,M,45.8,M,,0000*7F
$GPGGA,110740.00,5215.09507,N,00005.54840,W,2,08,1.13,51.8,M,45.8,M,,0000*70
$GPGGA,110741.00,5215.09322,N,00005.54936,W,2,09,2.13,48.5,M,45.8,M,,0000*77
$GPGGA,110742.00,5215.08989,N,00005.54972,W,2,09,2.13,43.0,M,45.8,M,,0000*70
$GPGGA,110743.00,5215.08889,N,00005.54889,W,2,09,1.13,43.0,M,45.8,M,,0000*76
$GPGGA,110744.00,5215.08876,N,00005.54843,W,2,09,1.13,44.6,M,45.8,M,,0000*76
$GPGGA,110745.00,5215.08846,N,00005.54760,W,2,09,1.06,45.9,M,45.8,M,,0000*70
$GPGGA,110746.00,5215.08846,N,00005.54759,W,2,09,1.06,47.3,M,45.8,M,,0000*71
$GPGGA,110747.00,5215.08799,N,00005.54775,W,2,09,1.06,47.5,M,45.8,M,,0000*75
$GPGGA,110748.00,5215.08755,N,00005.54766,W,2,09,1.06,47.5,M,45.8,M,,0000*78
$GPGGA,110749.00,5215.08758,N,00005.54731,W,2,09,1.06,48.4,M,45.8,M,,0000*78
$GPGGA,110750.00,5215.08741,N,00005.54691,W,2,09,1.06,48.8,M,45.8,M,,0000*7F
$GPGGA,110751.00,5215.08744,N,00005.54672,W,2,09,1.06,49.5,M,45.8,M,,0000*7A
$GPGGA,110752.00,5215.08741,N,00005.54692,W,2,09,1.06,50.0,M,45.8,M,,0000*7F
$GPGGA,110753.00,5215.08745,N,00005.54710,W,2,09,1.06,50.8,M,45.8,M,,0000*79
$GPGGA,110754.00,5215.08744,N,00005.54720,W,2,09,1.06,51.4,M,45.8,M,,0000*71
$GPGGA,110755.00,5215.08743,N,00005.54717,W,2,09,1.06,51.9,M,45.8,M,,0000*7E
$GPGGA,110756.00,5215.08748,N,00005.54717,W,2,09,1.06,52.3,M,45.8,M,,0000*7F
$GPGGA,110757.00,5215.08740,N,00005.54730,W,2,09,1.06,52.7,M,45.8,M,,0000*77
$GPGGA,110758.00,5215.08744,N,00005.54722,W,2,10,1.06,53.2,M,45.8,M,,0000*73
$GPGGA,110759.00,5215.08752,N,00005.54715,W,2,10,1.00,53.8,M,45.8,M,,0000*7D
$GPGGA,110800.00,5215.08754,N,00005.54703,W,2,10,1.00,54.2,M,45.8,M,,0000*72
$GPGGA,110801.00,5215.08751,N,00005.54694,W,2,10,1.00,54.4,M,45.8,M,,0000*7F
$GPGGA,110802.00,5215.08756,N,00005.54697,W,2,10,1.00,54.7,M,45.8,M,,0000*7B
$GPGGA,110803.00,5215.08756,N,00005.54694,W,2,10,1.00,54.9,M,45.8,M,,0000*77
$GPGGA,110804.00,5215.08764,N,00005.54687,W,2,10,1.00,55.1,M,45.8,M,,0000*7A
$GPGGA,110805.00,5215.08763,N,00005.54685,W,2,10,1.00,55.1,M,45.8,M,,0000*7E
$GPGGA,110806.00,5215.08769,N,00005.54679,W,2,10,1.00,55.6,M,45.8,M,,0000*73
$GPGGA,110807.00,5215.08781,N,00005.54667,W,2,10,1.00,55.9,M,45.8,M,,0000*74
$GPGGA,110808.00,5215.08788,N,00005.54651,W,2,10,1.00,56.1,M,45.8,M,,0000*7C
$GPGGA,110809.00,5215.08804,N,00005.54649,W,2,10,1.00,56.4,M,45.8,M,,0000*7A
$GPGGA,110810.00,5215.08818,N,00005.54655,W,2,10,1.00,56.5,M,45.8,M,,0000*73
$GPGGA,110811.00,5215.08830,N,00005.54657,W,2,10,1.00,56.4,M,45.8,M,,0000*7B
$GPGGA,110812.00,5215.08844,N,00005.54663,W,2,10,1.00,56.4,M,45.8,M,,0000*7C
$GPGGA,110813.00,5215.08859,N,00005.54671,W,2,10,1.00,56.5,M,45.8,M,,0000*73
$GPGGA,110814.00,5215.08872,N,00005.54664,W,2,10,1.00,56.6,M,45.8,M,,0000*7A
$GPGGA,110815.00,5215.08886,N,00005.54653,W,2,10,1.00,56.7,M,45.8,M,,0000*75
$GPGGA,110816.00,5215.08898,N,00005.54655,W,2,10,1.00,56.9,M,45.8,M,,0000*71
$GPGGA,110817.00,5215.08906,N,00005.54660,W,2,10,1.00,57.2,M,45.8,M,,0000*7A
$GPGGA,110818.00,5215.08911,N,00005.54657,W,2,10,1.00,57.3,M,45.8,M,,0000*76
$GPGGA,110819.00,5215.08918,N,00005.54648,W,2,10,1.00,57.6,M,45.8,M,,0000*75
$GPGGA,110820.00,5215.08922,N,00005.54651,W,2,10,1.00,57.9,M,45.8,M,,0000*71
$GPGGA,110821.00,5215.08928,N,00005.54653,W,2,10,1.00,58.1,M,45.8,M,,0000*7F
$GPGGA,110822.00,5215.08936,N,00005.54644,W,2,10,1.00,58.4,M,45.8,M,,0000*70
$GPGGA,110823.00,5215.08937,N,00005.54625,W,2,10,1.00,58.7,M,45.8,M,,0000*74
$GPGGA,110824.00,5215.08940,N,00005.54610,W,2,10,1.00,58.9,M,45.8,M,,0000*7B
$GPGGA,110825.00,5215.08940,N,00005.54596,W,2,10,1.00,58.9,M,45.8,M,,0000*77
$GPGGA,110826.00,5215.08936,N,00005.54583,W,2,10,1.00,58.8,M,45.8,M,,0000*70
$GPGGA,110827.00,5215.08930,N,00005.54579,W,2,10,1.00,58.7,M,45.8,M,,0000*7D
$GPGGA,110828.00,5215.08928,N,00005.54577,W,2,10,1.00,58.4,M,45.8,M,,0000*76
$GPGGA,110829.00,5215.08941,N,00005.54590,W,2,10,1.00,58.2,M,45.8,M,,0000*77
$GPGGA,110830.00,5215.08945,N,00005.54592,W,2,10,1.00,58.1,M,45.8,M,,0000*7A
$GPGGA,110831.00,5215.08943,N,00005.54586,W,2,10,1.00,58.0,M,45.8,M,,0000*79
$GPGGA,110832.00,5215.08941,N,00005.54573,W,2,10,1.00,57.9,M,45.8,M,,0000*74
$GPGGA,110833.00,5215.08940,N,00005.54564,W,2,10,1.00,57.9,M,45.8,M,,0000*72
$GPGGA,110834.00,5215.08939,N,00005.54550,W,2,10,1.00,57.8,M,45.8,M,,0000*7D
$GPGGA,110835.00,5215.08941,N,00005.54537,W,2,10,1.00,57.8,M,45.8,M,,0000*72
$GPGGA,110836.00,5215.08947,N,00005.54523,W,2,10,1.00,57.9,M,45.8,M,,0000*73
$GPGGA,110837.00,5215.08952,N,00005.54520,W,2,10,1.00,57.8,M,45.8,M,,0000*74
$GPGGA,110838.00,5215.08960,N,00005.54516,W,2,09,1.06,58.0,M,45.8,M,,0000*76
$GPGGA,110839.00,5215.08970,N,00005.54523,W,2,09,1.06,58.1,M,45.8,M,,0000*71
$GPGGA,110840.00,5215.08976,N,00005.54529,W,2,10,1.06,58.0,M,45.8,M,,0000*7A
$GPGGA,110841.00,5215.08978,N,00005.54527,W,2,10,1.00,58.0,M,45.8,M,,0000*7D
$GPGGA,110842.00,5215.08977,N,00005.54527,W,2,09,1.06,57.9,M,45.8,M,,0000*79
$GPGGA,110843.00,5215.08975,N,00005.54542,W,2,09,1.06,58.0,M,45.8,M,,0000*7F
$GPGGA,110844.00,5215.08966,N,00005.54553,W,2,09,1.06,57.9,M,45.8,M,,0000*7C
$GPGGA,110845.00,5215.08953,N,00005.54566,W,2,09,1.06,57.8,M,45.8,M,,0000*7C
$GPGGA,110846.00,5215.08950,N,00005.54586,W,2,09,1.06,57.6,M,45.8,M,,0000*7C
$GPGGA,110847.00,5215.08950,N,00005.54595,W,2,09,1.06,57.7,M,45.8,M,,0000*7E
$GPGGA,110848.00,5215.08945,N,00005.54618,W,2,09,1.06,57.5,M,45.8,M,,0000*71
$GPGGA,110849.00,5215.08934,N,00005.54647,W,2,09,1.06,57.3,M,45.8,M,,0000*7A
$GPGGA,110850.00,5215.08930,N,00005.54676,W,2,09,1.06,56.8,M,45.8,M,,0000*7E
$GPGGA,110851.00,5215.08915,N,00005.54706,W,2,09,1.06,56.3,M,45.8,M,,0000*75
$GPGGA,110852.00,5215.08891,N,00005.54743,W,2,09,1.06,55.9,M,45.8,M,,0000*73
$GPGGA,110853.00,5215.08870,N,00005.54764,W,2,09,1.06,55.4,M,45.8,M,,0000*75
$GPGGA,110854.00,5215.08847,N,00005.54775,W,2,09,1.06,54.9,M,45.8,M,,0000*7A
$GPGGA,110855.00,5215.08821,N,00005.54792,W,2,09,1.06,54.3,M,45.8,M,,0000*78
$GPGGA,110856.00,5215.08815,N,00005.54814,W,2,09,1.06,54.0,M,45.8,M,,0000*7E
$GPGGA,110857.00,5215.08815,N,00005.54822,W,2,09,1.06,53.9,M,45.8,M,,0000*74
$GPGGA,110858.00,5215.08817,N,00005.54819,W,2,09,1.06,53.5,M,45.8,M,,0000*7D
$GPGGA,110859.00,5215.08815,N,00005.54806,W,2,09,1.06,53.0,M,45.8,M,,0000*75
$GPGGA,110900.00,5215.08808,N,00005.54800,W,2,09,1.06,52.7,M,45.8,M,,0000*74
$GPGGA,110901.00,5215.08805,N,00005.54819,W,2,09,1.06,52.6,M,45.8,M,,0000*71
$GPGGA,110902.00,5215.08808,N,00005.54820,W,2,09,1.06,52.7,M,45.8,M,,0000*74
$GPGGA,110903.00,5215.08818,N,00005.54820,W,2,09,1.06,52.8,M,45.8,M,,0000*7B
$GPGGA,110904.00,5215.08826,N,00005.54830,W,2,09,1.06,52.9,M,45.8,M,,0000*71
$GPGGA,110905.00,5215.08835,N,00005.54827,W,2,09,1.06,52.9,M,45.8,M,,0000*74
$GPGGA,110906.00,5215.08835,N,00005.54833,W,2,09,1.06,53.0,M,45.8,M,,0000*7A
$GPGGA,110907.00,5215.08824,N,00005.54844,W,2,09,1.06,53.2,M,45.8,M,,0000*79
$GPGGA,110908.00,5215.08812,N,00005.54851,W,2,09,1.06,53.2,M,45.8,M,,0000*77
$GPGGA,110909.00,5215.08802,N,00005.54849,W,2,09,1.06,53.0,M,45.8,M,,0000*7C
$GPGGA,110910.00,5215.08802,N,00005.54860,W,2,09,1.06,53.0,M,45.8,M,,0000*7F
$GPGGA,110911.00,5215.08792,N,00005.54885,W,2,09,1.06,53.0,M,45.8,M,,0000*73
$GPGGA,110912.00,5215.08770,N,00005.54839,W,2,09,1.06,54.3,M,45.8,M,,0000*7F
$GPGGA,110913.00,5215.08547,N,00005.54979,W,2,10,1.06,53.8,M,45.8,M,,0000*79
$GPGGA,110914.00,5215.08456,N,00005.54651,W,2,09,1.06,38.8,M,45.8,M,,0000*7F
$GPGGA,110915.00,5215.08496,N,00005.54571,W,2,07,1.24,29.9,M,45.8,M,,0000*7C
$GPGGA,110916.00,5215.08556,N,00005.54517,W,2,08,1.24,26.4,M,45.8,M,,0000*7F
$GPGGA,110917.00,5215.08645,N,00005.54568,W,2,08,1.11,28.2,M,45.8,M,,0000*79
$GPGGA,110918.00,5215.08687,N,00005.54656,W,2,09,1.24,32.1,M,45.8,M,,0000*79
$GPGGA,110919.00,5215.08687,N,00005.54740,W,2,09,1.24,36.6,M,45.8,M,,0000*7D
$GPGGA,110920.00,5215.08691,N,00005.54740,W,2,09,1.14,39.9,M,45.8,M,,0000*73
$GPGGA,110921.00,5215.08667,N,00005.54793,W,2,09,1.06,42.0,M,45.8,M,,0000*73
$GPGGA,110922.00,5215.08673,N,00005.54809,W,2,09,1.06,43.7,M,45.8,M,,0000*7F
$GPGGA,110923.00,5215.08690,N,00005.54815,W,2,09,1.06,45.2,M,45.8,M,,0000*7D
$GPGGA,110924.00,5215.08703,N,00005.54816,W,2,09,1.06,46.3,M,45.8,M,,0000*70
$GPGGA,110925.00,5215.08717,N,00005.54817,W,2,09,1.06,47.4,M,45.8,M,,0000*73
$GPGGA,110926.00,5215.08729,N,00005.54821,W,2,09,1.06,48.3,M,45.8,M,,0000*70
$GPGGA,110927.00,5215.08737,N,00005.54824,W,2,09,1.11,48.9,M,45.8,M,,0000*77
$GPGGA,110928.00,5215.08741,N,00005.54817,W,2,09,1.06,49.4,M,45.8,M,,0000*73
$GPGGA,110929.00,5215.08740,N,00005.54810,W,2,09,1.06,50.0,M,45.8,M,,0000*78
$GPGGA,110930.00,5215.08735,N,00005.54817,W,2,09,1.06,50.4,M,45.8,M,,0000*71
$GPGGA,110931.00,5215.08723,N,00005.54825,W,2,09,1.06,50.7,M,45.8,M,,0000*75
$GPGGA,110932.00,5215.08717,N,00005.54832,W,2,09,1.06,50.8,M,45.8,M,,0000*78
$GPGGA,110933.00,5215.08727,N,00005.54821,W,2,09,1.06,51.0,M,45.8,M,,0000*71
$GPGGA,110934.00,5215.08732,N,00005.54811,W,2,10,1.06,51.1,M,45.8,M,,0000*78
$GPGGA,110935.00,5215.08740,N,00005.54809,W,2,10,1.06,51.2,M,45.8,M,,0000*76
$GPGGA,110936.00,5215.08741,N,00005.54810,W,2,10,1.06,51.4,M,45.8,M,,0000*7A
$GPGGA,110937.00,5215.08746,N,00005.54791,W,2,10,1.06,51.6,M,45.8,M,,0000*78
$GPGGA,110938.00,5215.08743,N,00005.54773,W,2,10,1.06,51.6,M,45.8,M,,0000*7E
$GPGGA,110939.00,5215.08749,N,00005.54753,W,2,10,1.00,51.7,M,45.8,M,,0000*70
$GPGGA,110940.00,5215.08745,N,00005.54737,W,2,10,1.26,51.8,M,45.8,M,,0000*7B
$GPGGA,110941.00,5215.08748,N,00005.54721,W,2,10,1.00,52.2,M,45.8,M,,0000*7D
$GPGGA,110942.00,5215.08757,N,00005.54711,W,2,10,1.00,52.2,M,45.8,M,,0000*73
$GPGGA,110943.00,5215.08762,N,00005.54701,W,2,10,1.00,52.4,M,45.8,M,,0000*73
$GPGGA,110944.00,5215.08764,N,00005.54691,W,2,10,1.00,52.4,M,45.8,M,,0000*7A
$GPGGA,110945.00,5215.08776,N,00005.54693,W,2,10,1.00,52.3,M,45.8,M,,0000*7D
$GPGGA,110946.00,5215.08769,N,00005.54691,W,2,10,1.00,52.5,M,45.8,M,,0000*74
$GPGGA,110947.00,5215.08780,N,00005.54699,W,2,10,1.00,52.4,M,45.8,M,,0000*7B
$GPGGA,110948.00,5215.08790,N,00005.54700,W,2,10,1.00,52.2,M,45.8,M,,0000*72
$GPGGA,110949.00,5215.08795,N,00005.54682,W,2,10,1.00,52.3,M,45.8,M,,0000*7C
$GPGGA,110950.00,5215.08808,N,00005.54679,W,2,10,1.00,52.7,M,45.8,M,,0000*7F
$GPGGA,110951.00,5215.08822,N,00005.54671,W,2,10,1.00,52.9,M,45.8,M,,0000*70
$GPGGA,110952.00,5215.08826,N,00005.54675,W,2,10,1.00,53.3,M,45.8,M,,0000*78
$GPGGA,110953.00,5215.08837,N,00005.54659,W,2,10,1.00,53.8,M,45.8,M,,0000*7C
$GPGGA,110954.00,5215.08864,N,00005.54652,W,2,10,1.00,54.3,M,45.8,M,,0000*7A
$GPGGA,110955.00,5215.08883,N,00005.54648,W,2,10,1.00,54.5,M,45.8,M,,0000*7F
$GPGGA,110956.00,5215.08895,N,00005.54644,W,2,10,1.00,54.6,M,45.8,M,,0000*74
$GPGGA,110957.00,5215.08900,N,00005.54637,W,2,10,1.00,54.5,M,45.8,M,,0000*7F
$GPGGA,110958.00,5215.08911,N,00005.54630,W,2,10,1.00,54.8,M,45.8,M,,0000*7A
$GPGGA,110959.00,5215.08915,N,00005.54635,W,2,11,1.00,54.9,M,45.8,M,,0000*7A
$GPGGA,111000.00,5215.08922,N,00005.54688,W,2,11,1.00,54.3,M,45.8,M,,0000*76
$GPGGA,111001.00,5215.08958,N,00005.54672,W,2,11,1.00,55.5,M,45.8,M,,0000*78
$GPGGA,111002.00,5215.08976,N,00005.54673,W,2,11,1.00,55.4,M,45.8,M,,0000*77
$GPGGA,111003.00,5215.08973,N,00005.54663,W,2,11,1.00,56.0,M,45.8,M,,0000*75
$GPGGA,111004.00,5215.08983,N,00005.54641,W,2,11,1.00,56.3,M,45.8,M,,0000*7E
$GPGGA,111005.00,5215.08987,N,00005.54632,W,2,11,1.00,56.4,M,45.8,M,,0000*78
$GPGGA,111006.00,5215.08990,N,00005.54628,W,2,11,1.00,56.7,M,45.8,M,,0000*75
$GPGGA,111007.00,5215.08998,N,00005.54634,W,2,11,1.00,56.6,M,45.8,M,,0000*70
$GPGGA,111008.00,5215.09013,N,00005.54620,W,2,11,1.00,57.3,M,45.8,M,,0000*75
$GPGGA,111009.00,5215.09025,N,00005.54624,W,2,11,1.00,57.4,M,45.8,M,,0000*72
$GPGGA,111010.00,5215.09025,N,00005.54655,W,2,11,1.00,57.4,M,45.8,M,,0000*7C
$GPGGA,111011.00,5215.09024,N,00005.54671,W,2,11,1.00,57.3,M,45.8,M,,0000*7D
$GPGGA,111012.00,5215.09029,N,00005.54696,W,2,11,1.00,56.9,M,45.8,M,,0000*71
$GPGGA,111013.00,5215.09018,N,00005.54718,W,2,11,1.00,56.6,M,45.8,M,,0000*7A
$GPGGA,111014.00,5215.09026,N,00005.54737,W,2,11,1.00,56.5,M,45.8,M,,0000*7E
$GPGGA,111015.00,5215.09028,N,00005.54753,W,2,11,1.00,56.5,M,45.8,M,,0000*73
$GPGGA,111016.00,5215.09026,N,00005.54761,W,2,11,1.00,56.5,M,45.8,M,,0000*7F
$GPGGA,111017.00,5215.09028,N,00005.54768,W,2,11,1.00,56.7,M,45.8,M,,0000*7B
$GPGGA,111018.00,5215.09034,N,00005.54763,W,2,11,1.00,56.8,M,45.8,M,,0000*7D
$GPGGA,111019.00,5215.09036,N,00005.54748,W,2,11,1.00,56.9,M,45.8,M,,0000*76
$GPGGA,111020.00,5215.09039,N,00005.54740,W,2,11,1.00,57.0,M,45.8,M,,0000*73
$GPGGA,111021.00,5215.09041,N,00005.54737,W,2,11,1.00,57.2,M,45.8,M,,0000*7F
$GPGGA,111022.00,5215.09030,N,00005.54726,W,2,11,1.00,57.2,M,45.8,M,,0000*7A
$GPGGA,111023.00,5215.09023,N,00005.54725,W,2,11,1.00,57.4,M,45.8,M,,0000*7C
$GPGGA,111024.00,5215.09010,N,00005.54712,W,2,11,1.00,57.6,M,45.8,M,,0000*7D
$GPGGA,111025.00,5215.08995,N,00005.54702,W,2,11,1.00,57.6,M,45.8,M,,0000*78
$GPGGA,111026.00,5215.08991,N,00005.54684,W,2,11,1.00,57.6,M,45.8,M,,0000*70
$GPGGA,111027.00,5215.08990,N,00005.54664,W,2,11,1.00,57.9,M,45.8,M,,0000*71
$GPGGA,111028.00,5215.08994,N,00005.54642,W,2,11,1.00,58.2,M,45.8,M,,0000*7A
$GPGGA,111029.00,5215.08988,N,00005.54621,W,2,11,1.00,58.3,M,45.8,M,,0000*72
$GPGGA,111030.00,5215.08983,N,00005.54613,W,2,11,1.00,58.3,M,45.8,M,,0000*70
$GPGGA,111031.00,5215.08973,N,00005.54602,W,2,11,1.00,58.1,M,45.8,M,,0000*7C
$GPGGA,111032.00,5215.08968,N,00005.54587,W,2,11,1.00,58.1,M,45.8,M,,0000*7B
$GPGGA,111033.00,5215.08966,N,00005.54562,W,2,11,1.00,58.1,M,45.8,M,,0000*7F
$GPGGA,111034.00,5215.08954,N,00005.54534,W,2,11,1.00,58.2,M,45.8,M,,0000*79
$GPGGA,111035.00,5215.08937,N,00005.54528,W,2,11,1.00,58.3,M,45.8,M,,0000*71
$GPGGA,111036.00,5215.08916,N,00005.54525,W,2,11,1.00,58.1,M,45.8,M,,0000*7E
$GPGGA,111037.00,5215.08895,N,00005.54530,W,2,11,1.00,57.9,M,45.8,M,,0000*76
$GPGGA,111038.00,5215.08877,N,00005.54535,W,2,11,1.00,57.7,M,45.8,M,,0000*7E
$GPGGA,111039.00,5215.08866,N,00005.54525,W,2,11,1.00,57.6,M,45.8,M,,0000*7F
$GPGGA,111040.00,5215.08864,N,00005.54515,W,2,11,1.06,57.6,M,45.8,M,,0000*76
$GPGGA,111041.00,5215.08855,N,00005.54515,W,2,11,1.06,57.6,M,45.8,M,,0000*75
$GPGGA,111042.00,5215.08849,N,00005.54506,W,2,11,1.00,57.7,M,45.8,M,,0000*7E
$GPGGA,111043.00,5215.08838,N,00005.54518,W,2,11,1.00,57.6,M,45.8,M,,0000*77
$GPGGA,111044.00,5215.08828,N,00005.54524,W,2,11,1.00,57.6,M,45.8,M,,0000*7E
$GPGGA,111045.00,5215.08820,N,00005.54535,W,2,11,1.00,57.6,M,45.8,M,,0000*77
$GPGGA,111046.00,5215.08814,N,00005.54538,W,2,11,1.06,57.6,M,45.8,M,,0000*78
$GPGGA,111047.00,5215.08798,N,00005.54554,W,2,11,1.06,57.5,M,45.8,M,,0000*7B
$GPGGA,111048.00,5215.08785,N,00005.54556,W,2,11,1.00,57.2,M,45.8,M,,0000*7B
$GPGGA,111049.00,5215.08768,N,00005.54560,W,2,11,1.00,57.0,M,45.8,M,,0000*7E
$GPGGA,111050.00,5215.08750,N,00005.54569,W,2,11,1.00,56.9,M,45.8,M,,0000*7C
$GPGGA,111051.00,5215.08738,N,00005.54563,W,2,11,1.00,56.8,M,45.8,M,,0000*78
$GPGGA,111052.00,5215.08720,N,00005.54555,W,2,11,1.00,56.4,M,45.8,M,,0000*7B
