$GPGGA,,,,,,0,00,99.99,,,,,,*48^M
$GPGGA,105745.00,,,,,0,00,99.99,,,,,,*64
$GPGGA,113121.00,5215.17959,N,00005.56735,W,1,11,0.85,121.4,M,45.8,M,,*4A
$GPGGA,113321.00,5215.42431,N,00005.36688,W,1,11,0.86,125.3,M,45.8,M,,*4A
$GPGGA,113521.00,5215.76122,N,00005.03775,W,1,11,0.91,555.7,M,45.8,M,,*48
$GPGGA,113721.00,5216.21146,N,00004.84050,W,1,10,0.91,1336.4,M,45.8,M,,*77
$GPGGA,113921.00,5216.64725,N,00004.75905,W,1,10,0.92,2950.4,M,45.8,M,,*76
$GPGGA,114121.00,5217.03516,N,00004.77932,W,1,10,0.92,3534.7,M,45.8,M,,*71
$GPGGA,114321.00,5217.45673,N,00004.46624,W,1,10,0.93,4094.2,M,45.8,M,,*77
$GPGGA,114521.00,5218.04891,N,00004.13352,W,1,10,0.93,4705.2,M,45.8,M,,*72
$GPGGA,114721.00,5218.75466,N,00003.51020,W,1,10,0.97,5339.1,M,45.8,M,,*78
$GPGGA,114921.00,5219.37299,N,00002.53415,W,1,10,0.94,5978.8,M,45.7,M,,*7C
$GPGGA,115121.00,5220.07449,N,00001.40599,W,1,10,0.94,6620.1,M,45.7,M,,*7B
$GPGGA,115321.00,5220.76356,N,00000.39210,W,1,10,0.94,7251.6,M,45.7,M,,*7B
$GPGGA,115521.00,5221.33701,N,00000.70452,E,1,11,0.85,7834.1,M,45.7,M,,*6B
$GPGGA,115721.00,5221.72293,N,00001.23711,E,1,11,0.85,8456.3,M,45.7,M,,*64
$GPGGA,115921.00,5222.04441,N,00001.50471,E,1,11,0.85,9047.3,M,45.7,M,,*65
$GPGGA,120121.00,5222.34861,N,00001.94164,E,1,11,0.85,9660.5,M,45.7,M,,*6A
$GPGGA,120321.00,5222.20309,N,00002.53444,E,1,11,0.85,10343.0,M,45.7,M,,*5E
$GPGGA,120521.00,5222.06621,N,00003.22798,E,1,11,0.92,10972.6,M,45.7,M,,*5E
$GPGGA,120721.00,5222.14473,N,00004.25835,E,1,11,0.84,11562.6,M,45.7,M,,*59
$GPGGA,120921.00,5222.37117,N,00005.27385,E,2,11,0.84,12132.8,M,45.7,M,,0000*5D
$GPGGA,121121.00,5222.71154,N,00006.27555,E,1,11,0.83,12702.8,M,45.7,M,,*58
$GPGGA,121321.00,5223.10759,N,00007.27492,E,1,11,0.83,13280.6,M,45.7,M,,*5C
$GPGGA,121521.00,5223.56331,N,00008.26235,E,1,11,0.82,13821.6,M,45.7,M,,*57
$GPGGA,121721.00,5223.94750,N,00009.12187,E,1,11,0.82,14345.9,M,45.7,M,,*55
$GPGGA,121921.00,5224.42781,N,00009.82044,E,1,11,0.81,14891.7,M,45.7,M,,*53
$GPGGA,122121.00,5224.81576,N,00010.62341,E,1,11,0.81,15431.1,M,45.7,M,,*5C
$GPGGA,122321.00,5224.88533,N,00011.27484,E,1,11,0.80,15991.4,M,45.7,M,,*5B
$GPGGA,122521.00,5225.08707,N,00011.92962,E,1,11,0.80,16556.4,M,45.7,M,,*5E
$GPGGA,122721.00,5225.23817,N,00012.67582,E,1,11,0.79,17126.5,M,45.7,M,,*55
$GPGGA,122921.00,5225.20551,N,00013.07856,E,1,11,0.79,17689.2,M,45.7,M,,*51
$GPGGA,123121.00,5224.95120,N,00013.24002,E,1,12,0.78,18271.4,M,45.7,M,,*55
$GPGGA,123321.00,5224.73734,N,00013.15188,E,1,12,0.75,18861.4,M,45.7,M,,*5B
$GPGGA,123521.00,5224.52655,N,00013.19368,E,1,11,0.75,19465.5,M,45.7,M,,*53
$GPGGA,123721.00,5224.35732,N,00013.13233,E,1,11,0.78,20073.9,M,45.7,M,,*5D
$GPGGA,123921.00,5223.84037,N,00013.27201,E,1,10,0.78,20698.0,M,45.7,M,,*51
$GPGGA,124121.00,5223.32145,N,00012.95399,E,1,10,0.78,21315.7,M,45.7,M,,*59
$GPGGA,124321.00,5223.03131,N,00012.36155,E,1,10,0.78,21926.3,M,45.7,M,,*5F
$GPGGA,124521.00,5222.92238,N,00012.30955,E,1,10,0.78,22537.9,M,45.7,M,,*51
$GPGGA,124721.00,5222.57838,N,00012.46192,E,1,10,0.78,23159.1,M,45.7,M,,*57
$GPGGA,125121.00,5221.67783,N,00012.56900,E,1,10,0.79,24485.4,M,45.7,M,,*5A
$GPGGA,125321.00,5221.33276,N,00012.36365,E,1,10,0.79,25163.8,M,45.7,M,,*59
$GPGGA,125721.00,5220.91597,N,00012.49395,E,1,10,0.79,26586.4,M,45.7,M,,*5B
$GPGGA,130121.00,5219.92011,N,00013.47092,E,1,10,0.79,27942.4,M,45.7,M,,*55
$GPGGA,130321.00,5219.58814,N,00013.74839,E,1,10,0.79,28584.8,M,45.7,M,,*50
$GPGGA,130521.00,5219.24535,N,00014.57421,E,1,10,0.79,29297.5,M,45.7,M,,*59
$GPGGA,130721.00,5218.95577,N,00015.26099,E,1,11,0.87,30005.2,M,45.7,M,,*50
$GPGGA,131321.00,5217.90459,N,00017.60113,E,1,10,0.79,27111.5,M,45.7,M,,*54
$GPGGA,131521.00,5217.47871,N,00017.70252,E,1,11,0.72,22757.9,M,45.7,M,,*5E
$GPGGA,131721.00,5217.13667,N,00017.45771,E,1,11,0.73,19629.9,M,45.7,M,,*57
$GPGGA,131921.00,5216.98337,N,00017.49258,E,1,11,0.89,17149.6,M,45.7,M,,*5C
$GPGGA,132121.00,5217.13220,N,00018.25841,E,1,10,0.84,15181.4,M,45.7,M,,*5D
$GPGGA,132321.00,5217.51082,N,00019.23019,E,1,10,0.84,13439.2,M,45.7,M,,*57
$GPGGA,132521.00,5217.87226,N,00020.23269,E,1,10,0.85,11929.1,M,45.7,M,,*55
$GPGGA,132721.00,5217.89404,N,00021.02913,E,1,11,0.82,10578.8,M,45.7,M,,*5D
$GPGGA,132921.00,5217.92056,N,00021.67655,E,1,11,0.82,9384.1,M,45.7,M,,*60
$GPGGA,133121.00,5218.34693,N,00022.25668,E,1,11,0.92,8305.8,M,45.7,M,,*6E
$GPGGA,133321.00,5218.98448,N,00023.36422,E,1,10,0.93,7291.8,M,45.7,M,,*62
$GPGGA,133521.00,5219.75131,N,00024.50656,E,1,10,0.93,6204.6,M,45.7,M,,*68
$GPGGA,133721.00,5220.44684,N,00025.33099,E,1,10,0.94,5325.7,M,45.7,M,,*6D
$GPGGA,133921.00,5221.06681,N,00025.90798,E,1,10,0.95,4463.4,M,45.7,M,,*68
$GPGGA,134121.00,5221.55166,N,00026.47663,E,1,10,0.95,3565.0,M,45.7,M,,*67
$GPGGA,134321.00,5221.91411,N,00026.62627,E,1,10,0.96,2761.0,M,45.7,M,,*6B
$GPGGA,134521.00,5222.26834,N,00026.83593,E,1,10,0.96,1981.7,M,45.7,M,,*6E
$GPGGA,134721.00,5222.44275,N,00027.31421,E,1,10,0.97,1227.5,M,45.7,M,,*63
$GPGGA,134921.00,5222.61990,N,00027.57277,E,1,10,0.97,154.2,M,45.7,M,,*5E
$GPGGA,135921.00,5222.61990,N,00027.57277,E,1,10,0.97,152.2,M,45.7,M,,*59^M
$GPGGA,136921.00,5222.61990,N,00027.57277,E,1,10,0.97,150.2,M,45.7,M,,*58^M
