$GPGGA,112940.00,,,,,0,00,99.99,,,,,,*62^M
$GPGGA,113021.00,5215.10445,N,00005.54857,W,1,11,0.85,123.7,M,45.8,M,,*44
$GPGGA,113051.00,5215.15491,N,00005.56456,W,1,11,0.85,343.7,M,45.8,M,,*44
$GPGGA,113121.00,5215.17959,N,00005.56735,W,1,11,0.85,521.4,M,45.8,M,,*4E
$GPGGA,113151.00,5215.24927,N,00005.50583,W,1,11,0.86,691.3,M,45.8,M,,*45
$GPGGA,113221.00,5215.31403,N,00005.47418,W,1,11,0.86,855.2,M,45.8,M,,*4C
$GPGGA,113251.00,5215.35670,N,00005.40333,W,1,11,0.86,1005.4,M,45.8,M,,*7A
$GPGGA,113321.00,5215.42431,N,00005.36688,W,1,11,0.86,1155.3,M,45.8,M,,*7C
$GPGGA,113351.00,5215.51127,N,00005.26372,W,1,11,0.86,1296.4,M,45.8,M,,*71
$GPGGA,113421.00,5215.60311,N,00005.16523,W,1,11,0.86,1451.2,M,45.8,M,,*7E
$GPGGA,113451.00,5215.67878,N,00005.09110,W,1,11,0.90,1601.5,M,45.8,M,,*77
$GPGGA,113521.00,5215.76122,N,00005.03775,W,1,11,0.91,1755.7,M,45.8,M,,*7B
$GPGGA,113551.00,5215.87261,N,00004.99841,W,1,11,0.91,1909.7,M,45.8,M,,*7B
$GPGGA,113621.00,5215.99255,N,00004.95216,W,1,11,0.91,2050.9,M,45.8,M,,*7B
$GPGGA,113651.00,5216.08936,N,00004.88801,W,1,11,0.91,2190.9,M,45.8,M,,*74
$GPGGA,113721.00,5216.21146,N,00004.84050,W,1,10,0.91,2336.4,M,45.8,M,,*74
$GPGGA,113751.00,5216.32066,N,00004.82846,W,1,10,0.91,2504.8,M,45.8,M,,*70
$GPGGA,113821.00,5216.46043,N,00004.81571,W,1,10,0.91,2672.9,M,45.8,M,,*75
$GPGGA,113851.00,5216.53038,N,00004.76551,W,1,10,0.92,2815.8,M,45.8,M,,*7D
$GPGGA,113921.00,5216.64725,N,00004.75905,W,1,10,0.92,2950.4,M,45.8,M,,*76
$GPGGA,113951.00,5216.75220,N,00004.71230,W,1,10,0.92,3107.8,M,45.8,M,,*7F
$GPGGA,114021.00,5216.81825,N,00004.75126,W,1,10,0.92,3246.4,M,45.8,M,,*78
$GPGGA,114051.00,5216.91775,N,00004.81825,W,1,10,0.92,3390.3,M,45.8,M,,*78
$GPGGA,114121.00,5217.03516,N,00004.77932,W,1,10,0.92,3534.7,M,45.8,M,,*71
$GPGGA,114151.00,5217.15728,N,00004.72706,W,1,10,0.92,3673.1,M,45.8,M,,*74
$GPGGA,114221.00,5217.23145,N,00004.61350,W,1,10,0.92,3821.8,M,45.8,M,,*7D
$GPGGA,114251.00,5217.31778,N,00004.54936,W,1,10,0.92,3955.8,M,45.8,M,,*7F
$GPGGA,114321.00,5217.45673,N,00004.46624,W,1,10,0.93,4094.2,M,45.8,M,,*77
$GPGGA,114351.00,5217.60101,N,00004.40088,W,1,10,0.93,4234.7,M,45.8,M,,*7E
$GPGGA,114421.00,5217.74329,N,00004.30937,W,1,10,0.93,4391.4,M,45.8,M,,*74
$GPGGA,114451.00,5217.90674,N,00004.23633,W,1,10,0.93,4557.6,M,45.8,M,,*73
$GPGGA,114521.00,5218.04891,N,00004.13352,W,1,10,0.93,4705.2,M,45.8,M,,*72
$GPGGA,114551.00,5218.20955,N,00003.98731,W,1,10,0.93,4857.2,M,45.8,M,,*77
$GPGGA,114621.00,5218.40178,N,00003.82795,W,1,10,0.93,5027.6,M,45.8,M,,*7D
$GPGGA,114651.00,5218.59458,N,00003.64912,W,1,10,0.93,5188.8,M,45.8,M,,*76
$GPGGA,114721.00,5218.75466,N,00003.51020,W,1,10,0.97,5339.1,M,45.8,M,,*78
$GPGGA,114751.00,5218.88422,N,00003.28376,W,1,10,0.93,5494.8,M,45.8,M,,*7E
$GPGGA,114821.00,5219.02251,N,00003.05903,W,1,10,0.93,5658.5,M,45.8,M,,*7F
$GPGGA,114851.00,5219.17712,N,00002.82038,W,1,10,0.94,5816.4,M,45.8,M,,*73
$GPGGA,114921.00,5219.37299,N,00002.53415,W,1,10,0.94,5978.8,M,45.7,M,,*7C
$GPGGA,114951.00,5219.57076,N,00002.23813,W,1,10,0.94,6132.4,M,45.7,M,,*7A
$GPGGA,115021.00,5219.74401,N,00001.92304,W,1,10,0.94,6294.5,M,45.7,M,,*7A
$GPGGA,115051.00,5219.91881,N,00001.65858,W,1,10,0.99,6456.9,M,45.7,M,,*71
$GPGGA,115121.00,5220.07449,N,00001.40599,W,1,10,0.94,6620.1,M,45.7,M,,*7B
$GPGGA,115151.00,5220.24261,N,00001.21407,W,1,10,0.94,6772.7,M,45.7,M,,*70
$GPGGA,115221.00,5220.40378,N,00000.91444,W,1,10,0.94,6942.0,M,45.7,M,,*78
$GPGGA,115251.00,5220.57950,N,00000.65687,W,1,10,0.94,7100.6,M,45.7,M,,*76
$GPGGA,115321.00,5220.76356,N,00000.39210,W,1,10,0.94,7251.6,M,45.7,M,,*7B
$GPGGA,115351.00,5220.91765,N,00000.12485,W,1,11,0.96,7399.6,M,45.7,M,,*74
$GPGGA,115421.00,5221.05435,N,00000.14344,E,1,11,0.85,7553.2,M,45.7,M,,*66
$GPGGA,115451.00,5221.19686,N,00000.45109,E,1,11,0.85,7697.3,M,45.7,M,,*63
$GPGGA,115521.00,5221.33701,N,00000.70452,E,1,11,0.85,7834.1,M,45.7,M,,*6B
$GPGGA,115551.00,5221.45626,N,00000.92827,E,1,11,0.85,7998.2,M,45.7,M,,*6F
$GPGGA,115621.00,5221.53291,N,00001.06352,E,1,11,0.85,8145.0,M,45.7,M,,*64
$GPGGA,115651.00,5221.60780,N,00001.15932,E,1,11,0.85,8295.8,M,45.7,M,,*6E
$GPGGA,115721.00,5221.72293,N,00001.23711,E,1,11,0.85,8456.3,M,45.7,M,,*64
$GPGGA,115751.00,5221.81790,N,00001.27759,E,1,11,0.85,8602.2,M,45.7,M,,*63
$GPGGA,115821.00,5221.89198,N,00001.32796,E,1,11,0.85,8758.0,M,45.7,M,,*66
$GPGGA,115851.00,5221.98516,N,00001.38887,E,1,11,0.85,8918.8,M,45.7,M,,*64
$GPGGA,115921.00,5222.04441,N,00001.50471,E,1,11,0.85,9047.3,M,45.7,M,,*65
$GPGGA,115951.00,5222.12020,N,00001.62117,E,1,11,0.85,9191.6,M,45.7,M,,*6D
$GPGGA,120021.00,5222.19436,N,00001.71683,E,1,11,0.85,9345.0,M,45.7,M,,*68
$GPGGA,120051.00,5222.28460,N,00001.81034,E,1,11,0.87,9497.4,M,45.7,M,,*65
$GPGGA,120121.00,5222.34861,N,00001.94164,E,1,11,0.85,9660.5,M,45.7,M,,*6A
$GPGGA,120151.00,5222.34134,N,00002.11756,E,1,11,0.85,9829.8,M,45.7,M,,*63
$GPGGA,120221.00,5222.29013,N,00002.30491,E,1,11,0.85,10010.9,M,45.7,M,,*5F
$GPGGA,120251.00,5222.24901,N,00002.46759,E,1,11,0.85,10180.2,M,45.7,M,,*5A
$GPGGA,120321.00,5222.20309,N,00002.53444,E,1,11,0.85,10343.0,M,45.7,M,,*5E
$GPGGA,120351.00,5222.12773,N,00002.69762,E,2,11,0.85,10507.7,M,45.7,M,,0000*5D
$GPGGA,120421.00,5222.09613,N,00002.86944,E,2,11,0.85,10650.8,M,45.7,M,,0000*55
$GPGGA,120451.00,5222.08666,N,00003.03280,E,1,11,0.85,10808.9,M,45.7,M,,*5F
$GPGGA,120521.00,5222.06621,N,00003.22798,E,1,11,0.92,10972.6,M,45.7,M,,*5E
$GPGGA,120551.00,5222.05906,N,00003.44730,E,1,11,0.85,11131.4,M,45.7,M,,*58
$GPGGA,120621.00,5222.07779,N,00003.70514,E,1,11,0.93,11281.4,M,45.7,M,,*54
$GPGGA,120651.00,5222.10893,N,00003.99115,E,1,11,0.84,11428.4,M,45.7,M,,*5F
$GPGGA,120721.00,5222.14473,N,00004.25835,E,1,11,0.84,11562.6,M,45.7,M,,*59
$GPGGA,120751.00,5222.19199,N,00004.52005,E,1,11,0.84,11708.4,M,45.7,M,,*55
$GPGGA,120821.00,5222.24199,N,00004.76870,E,1,11,0.84,11860.1,M,45.7,M,,*5B
$GPGGA,120851.00,5222.30103,N,00005.01192,E,2,11,0.84,12000.3,M,45.7,M,,0000*52
$GPGGA,120921.00,5222.37117,N,00005.27385,E,2,11,0.84,12132.8,M,45.7,M,,0000*5D
$GPGGA,120951.00,5222.43235,N,00005.52732,E,1,11,0.84,12266.7,M,45.7,M,,*5E
$GPGGA,121021.00,5222.50955,N,00005.78568,E,1,11,0.84,12402.8,M,45.7,M,,*50
$GPGGA,121051.00,5222.61416,N,00006.00309,E,1,11,0.84,12534.1,M,45.7,M,,*5F
$GPGGA,121121.00,5222.71154,N,00006.27555,E,1,11,0.83,12702.8,M,45.7,M,,*58
$GPGGA,121151.00,5222.76666,N,00006.61101,E,1,11,0.83,12847.1,M,45.7,M,,*5E
$GPGGA,121221.00,5222.85587,N,00006.87964,E,1,11,0.83,13000.9,M,45.7,M,,*5B
$GPGGA,121251.00,5222.98691,N,00007.06896,E,1,11,0.83,13139.9,M,45.7,M,,*5B
$GPGGA,121321.00,5223.10759,N,00007.27492,E,1,11,0.83,13280.6,M,45.7,M,,*5C
$GPGGA,121351.00,5223.22849,N,00007.51270,E,1,11,0.83,13420.9,M,45.7,M,,*5C
$GPGGA,121421.00,5223.32539,N,00007.77817,E,1,11,0.83,13554.3,M,45.7,M,,*50
$GPGGA,121451.00,5223.44027,N,00008.03928,E,1,11,0.83,13690.7,M,45.7,M,,*52
$GPGGA,121521.00,5223.56331,N,00008.26235,E,1,11,0.82,13821.6,M,45.7,M,,*57
$GPGGA,121551.00,5223.66931,N,00008.49356,E,1,11,0.82,13950.1,M,45.7,M,,*54
$GPGGA,121621.00,5223.75513,N,00008.71495,E,1,11,0.82,14082.0,M,45.7,M,,*5D
$GPGGA,121651.00,5223.85443,N,00008.91999,E,1,11,0.87,14214.9,M,45.7,M,,*5F
$GPGGA,121721.00,5223.94750,N,00009.12187,E,1,11,0.82,14345.9,M,45.7,M,,*55
$GPGGA,121751.00,5224.06879,N,00009.27612,E,1,11,0.82,14483.2,M,45.7,M,,*51
$GPGGA,121821.00,5224.19137,N,00009.44862,E,1,11,0.82,14620.6,M,45.7,M,,*57
$GPGGA,121851.00,5224.31412,N,00009.61564,E,1,11,0.81,14756.3,M,45.7,M,,*52
$GPGGA,121921.00,5224.42781,N,00009.82044,E,1,11,0.81,14891.7,M,45.7,M,,*53
$GPGGA,121951.00,5224.55887,N,00010.01977,E,1,11,0.81,15026.1,M,45.7,M,,*52
$GPGGA,122021.00,5224.67368,N,00010.23838,E,1,11,0.81,15161.1,M,45.7,M,,*5C
$GPGGA,122051.00,5224.77612,N,00010.45049,E,1,11,0.81,15295.7,M,45.7,M,,*52
$GPGGA,122121.00,5224.81576,N,00010.62341,E,1,11,0.81,15431.1,M,45.7,M,,*5C
$GPGGA,122151.00,5224.82674,N,00010.79592,E,1,11,0.81,15567.1,M,45.7,M,,*59
$GPGGA,122221.00,5224.85201,N,00010.94778,E,1,11,0.80,15707.4,M,45.7,M,,*59
$GPGGA,122251.00,5224.85949,N,00011.12298,E,1,11,0.80,15848.9,M,45.7,M,,*54
$GPGGA,122321.00,5224.88533,N,00011.27484,E,1,11,0.80,15991.4,M,45.7,M,,*5B
$GPGGA,122351.00,5224.93847,N,00011.45285,E,1,11,0.80,16134.1,M,45.7,M,,*5A
$GPGGA,122421.00,5224.97265,N,00011.63965,E,1,11,0.80,16272.2,M,45.7,M,,*57
$GPGGA,122451.00,5225.02102,N,00011.78621,E,1,11,0.80,16414.7,M,45.7,M,,*59
$GPGGA,122521.00,5225.08707,N,00011.92962,E,1,11,0.80,16556.4,M,45.7,M,,*5E
$GPGGA,122551.00,5225.15527,N,00012.11984,E,1,11,0.80,16696.5,M,45.7,M,,*5B
$GPGGA,122621.00,5225.19789,N,00012.32001,E,1,11,0.79,16840.0,M,45.7,M,,*56
$GPGGA,122651.00,5225.22784,N,00012.49942,E,1,11,0.79,16986.9,M,45.7,M,,*54
$GPGGA,122721.00,5225.23817,N,00012.67582,E,1,11,0.79,17126.5,M,45.7,M,,*55
$GPGGA,122751.00,5225.24395,N,00012.84761,E,1,11,0.79,17270.1,M,45.7,M,,*52
$GPGGA,122821.00,5225.24355,N,00012.98839,E,1,11,0.88,17415.7,M,45.7,M,,*54
$GPGGA,122851.00,5225.24371,N,00013.05183,E,1,11,0.79,17532.0,M,45.7,M,,*55
$GPGGA,122921.00,5225.20551,N,00013.07856,E,1,11,0.79,17689.2,M,45.7,M,,*51
$GPGGA,122951.00,5225.12954,N,00013.12603,E,1,11,0.79,17839.1,M,45.7,M,,*52
$GPGGA,123021.00,5225.05636,N,00013.15858,E,1,11,0.79,17982.9,M,45.7,M,,*5E
$GPGGA,123051.00,5225.02118,N,00013.18179,E,1,12,0.87,18127.3,M,45.7,M,,*52
$GPGGA,123121.00,5224.95120,N,00013.24002,E,1,12,0.78,18271.4,M,45.7,M,,*55
$GPGGA,123151.00,5224.85865,N,00013.20748,E,1,12,0.73,18418.9,M,45.7,M,,*59
$GPGGA,123221.00,5224.79425,N,00013.16844,E,1,12,0.73,18565.6,M,45.7,M,,*54
$GPGGA,123251.00,5224.75904,N,00013.14396,E,1,12,0.80,18713.3,M,45.7,M,,*5D
$GPGGA,123321.00,5224.73734,N,00013.15188,E,1,12,0.75,18861.4,M,45.7,M,,*5B
$GPGGA,123351.00,5224.68333,N,00013.15068,E,1,12,0.75,19012.9,M,45.7,M,,*5A
$GPGGA,123421.00,5224.64337,N,00013.14728,E,1,12,0.82,19164.1,M,45.7,M,,*50
$GPGGA,123451.00,5224.58966,N,00013.19950,E,1,12,0.75,19313.5,M,45.7,M,,*54
$GPGGA,123521.00,5224.52655,N,00013.19368,E,1,11,0.75,19465.5,M,45.7,M,,*53
$GPGGA,123551.00,5224.44929,N,00013.10755,E,1,11,0.75,19613.6,M,45.7,M,,*54
$GPGGA,123621.00,5224.42245,N,00013.05718,E,1,11,0.75,19760.4,M,45.7,M,,*5D
$GPGGA,123651.00,5224.38745,N,00013.07686,E,1,11,0.77,19915.5,M,45.7,M,,*59
$GPGGA,123721.00,5224.35732,N,00013.13233,E,1,11,0.78,20073.9,M,45.7,M,,*5D
$GPGGA,123751.00,5224.29877,N,00013.21012,E,1,11,0.78,20230.7,M,45.7,M,,*52
$GPGGA,123821.00,5224.18638,N,00013.27121,E,1,11,0.78,20389.6,M,45.7,M,,*58
$GPGGA,123851.00,5224.03368,N,00013.28171,E,1,11,0.78,20544.2,M,45.7,M,,*5C
$GPGGA,123921.00,5223.84037,N,00013.27201,E,1,10,0.78,20698.0,M,45.7,M,,*51
$GPGGA,123951.00,5223.64966,N,00013.23952,E,1,10,0.78,20850.9,M,45.7,M,,*5F
$GPGGA,124021.00,5223.49746,N,00013.17593,E,1,10,0.78,21010.5,M,45.7,M,,*52
$GPGGA,124051.00,5223.41193,N,00013.05650,E,1,10,0.78,21163.5,M,45.7,M,,*59
$GPGGA,124121.00,5223.32145,N,00012.95399,E,1,10,0.78,21315.7,M,45.7,M,,*59
$GPGGA,124151.00,5223.21770,N,00012.82950,E,1,10,0.78,21471.5,M,45.7,M,,*52
$GPGGA,124221.00,5223.12431,N,00012.67801,E,1,10,0.78,21624.9,M,45.7,M,,*50
$GPGGA,124251.00,5223.05351,N,00012.49367,E,1,10,0.78,21769.3,M,45.7,M,,*55
$GPGGA,124321.00,5223.03131,N,00012.36155,E,1,10,0.78,21926.3,M,45.7,M,,*5F
$GPGGA,124351.00,5223.01349,N,00012.32271,E,1,10,0.78,22073.3,M,45.7,M,,*5C
$GPGGA,124421.00,5222.98545,N,00012.32362,E,1,10,0.78,22222.5,M,45.7,M,,*54
$GPGGA,124451.00,5222.93855,N,00012.32767,E,1,10,0.78,22378.7,M,45.7,M,,*59
$GPGGA,124521.00,5222.92238,N,00012.30955,E,1,10,0.78,22537.9,M,45.7,M,,*51
$GPGGA,124551.00,5222.89004,N,00012.33030,E,1,10,0.78,22697.6,M,45.7,M,,*5E
$GPGGA,124621.00,5222.81059,N,00012.40310,E,1,10,0.86,22855.8,M,45.7,M,,*50
$GPGGA,124651.00,5222.69068,N,00012.45418,E,1,10,0.78,23011.2,M,45.7,M,,*5B
$GPGGA,124721.00,5222.57838,N,00012.46192,E,1,10,0.78,23159.1,M,45.7,M,,*57
$GPGGA,124751.00,5222.45356,N,00012.45474,E,1,10,0.78,23319.5,M,45.7,M,,*5C
$GPGGA,124821.00,5222.32792,N,00012.47909,E,1,10,0.82,23484.4,M,45.7,M,,*5A
$GPGGA,124851.00,5222.19233,N,00012.51311,E,1,10,0.96,23645.8,M,45.7,M,,*58
$GPGGA,124921.00,5222.05431,N,00012.53866,E,1,10,0.78,23809.3,M,45.7,M,,*53
$GPGGA,124951.00,5221.94992,N,00012.53720,E,1,10,0.78,23969.6,M,45.7,M,,*54
$GPGGA,125021.00,5221.84936,N,00012.52775,E,1,10,0.78,24136.6,M,45.7,M,,*50
$GPGGA,125051.00,5221.77621,N,00012.54053,E,1,10,0.79,24311.9,M,45.7,M,,*5E
$GPGGA,125121.00,5221.67783,N,00012.56900,E,1,10,0.79,24485.4,M,45.7,M,,*5A
$GPGGA,125151.00,5221.58016,N,00012.53564,E,1,10,0.79,24662.3,M,45.7,M,,*5D
$GPGGA,125221.00,5221.47946,N,00012.44482,E,1,10,0.79,24829.0,M,45.7,M,,*56
$GPGGA,125251.00,5221.41837,N,00012.41288,E,1,10,0.85,25000.4,M,45.7,M,,*5C
$GPGGA,125321.00,5221.33276,N,00012.36365,E,1,10,0.79,25163.8,M,45.7,M,,*59
$GPGGA,125351.00,5221.24573,N,00012.26582,E,1,10,0.79,25339.8,M,45.7,M,,*59
$GPGGA,125421.00,5221.14125,N,00012.18198,E,1,10,0.79,25515.5,M,45.7,M,,*5A
$GPGGA,125451.00,5221.07910,N,00012.11395,E,1,10,0.79,25709.2,M,45.7,M,,*5F
$GPGGA,125521.00,5221.08139,N,00012.04839,E,1,10,0.79,25888.4,M,45.7,M,,*5C
$GPGGA,125551.00,5221.08632,N,00012.02603,E,1,10,0.79,26066.6,M,45.7,M,,*5F
$GPGGA,125621.00,5221.05923,N,00012.10467,E,1,10,0.79,26247.8,M,45.7,M,,*55
$GPGGA,125651.00,5221.03114,N,00012.25329,E,1,10,0.79,26420.7,M,45.7,M,,*5B
$GPGGA,125721.00,5220.91597,N,00012.49395,E,1,10,0.79,26586.4,M,45.7,M,,*5B
$GPGGA,125751.00,5220.73481,N,00012.67377,E,1,10,0.79,26743.1,M,45.7,M,,*58
$GPGGA,125821.00,5220.56702,N,00012.77566,E,1,10,0.79,26903.5,M,45.7,M,,*56
$GPGGA,125851.00,5220.46348,N,00012.89876,E,1,10,0.79,27079.0,M,45.7,M,,*57
$GPGGA,125921.00,5220.38120,N,00013.03162,E,1,10,0.79,27245.6,M,45.7,M,,*50
$GPGGA,125951.00,5220.24729,N,00013.12371,E,1,10,0.79,27420.8,M,45.7,M,,*5E
$GPGGA,130021.00,5220.13141,N,00013.23613,E,1,10,0.79,27594.8,M,45.7,M,,*55
$GPGGA,130051.00,5220.03542,N,00013.36411,E,1,10,0.79,27770.8,M,45.7,M,,*58
$GPGGA,130121.00,5219.92011,N,00013.47092,E,1,10,0.79,27942.4,M,45.7,M,,*55
$GPGGA,130151.00,5219.78957,N,00013.53978,E,1,10,0.79,28106.5,M,45.7,M,,*53
$GPGGA,130221.00,5219.71450,N,00013.66246,E,1,10,0.79,28267.8,M,45.7,M,,*5D
$GPGGA,130251.00,5219.62247,N,00013.72768,E,1,10,0.79,28423.9,M,45.7,M,,*53
$GPGGA,130321.00,5219.58814,N,00013.74839,E,1,10,0.79,28584.8,M,45.7,M,,*50
$GPGGA,130351.00,5219.53829,N,00013.88333,E,1,10,0.79,28765.9,M,45.7,M,,*5C
$GPGGA,130421.00,5219.44928,N,00014.07768,E,1,10,0.79,28943.4,M,45.7,M,,*57
$GPGGA,130451.00,5219.36009,N,00014.31323,E,1,10,0.79,29119.2,M,45.7,M,,*51
$GPGGA,130521.00,5219.24535,N,00014.57421,E,1,10,0.79,29297.5,M,45.7,M,,*59
$GPGGA,130551.00,5219.10133,N,00014.77471,E,1,10,0.87,29474.3,M,45.7,M,,*50
$GPGGA,130621.00,5218.99565,N,00014.93425,E,1,10,0.87,29650.0,M,45.7,M,,*5F
$GPGGA,130651.00,5218.96156,N,00015.07991,E,1,10,0.87,29826.4,M,45.7,M,,*56
$GPGGA,130721.00,5218.95577,N,00015.26099,E,1,11,0.87,30005.2,M,45.7,M,,*50
$GPGGA,130751.00,5218.88084,N,00015.47534,E,1,11,0.87,30176.4,M,45.7,M,,*54
$GPGGA,130821.00,5218.76689,N,00015.70947,E,1,10,0.79,30353.6,M,45.7,M,,*5D
$GPGGA,130851.00,5218.60651,N,00015.85572,E,1,10,0.79,30531.0,M,45.7,M,,*5C
$GPGGA,130921.00,5218.46487,N,00015.99208,E,1,10,0.79,30704.7,M,45.7,M,,*53
$GPGGA,130951.00,5218.38300,N,00016.21536,E,1,10,0.79,30879.0,M,45.7,M,,*5D
$GPGGA,131021.00,5218.31353,N,00016.43566,E,1,10,0.79,31051.2,M,45.7,M,,*5D
$GPGGA,131051.00,5218.24536,N,00016.61176,E,1,10,0.79,31222.8,M,45.7,M,,*52
$GPGGA,131121.00,5218.21583,N,00016.81653,E,1,10,0.79,31391.8,M,45.7,M,,*58
$GPGGA,131151.00,5218.15849,N,00017.08788,E,1,10,0.79,31552.2,M,45.7,M,,*57
$GPGGA,131221.00,5218.10458,N,00017.29157,E,1,10,0.79,30024.5,M,45.7,M,,*5F
$GPGGA,131251.00,5218.00689,N,00017.46968,E,1,10,0.79,28499.6,M,45.7,M,,*52
$GPGGA,131321.00,5217.90459,N,00017.60113,E,1,10,0.79,27111.5,M,45.7,M,,*54
$GPGGA,131351.00,5217.79629,N,00017.71245,E,1,10,0.79,25860.4,M,45.7,M,,*5D
$GPGGA,131421.00,5217.74139,N,00017.67776,E,1,11,0.80,24740.4,M,45.7,M,,*5F
$GPGGA,131451.00,5217.63316,N,00017.67396,E,1,11,0.72,23706.8,M,45.7,M,,*5F
$GPGGA,131521.00,5217.47871,N,00017.70252,E,1,11,0.72,22757.9,M,45.7,M,,*5E
$GPGGA,131551.00,5217.45092,N,00017.77242,E,1,11,0.72,21897.9,M,45.7,M,,*58
$GPGGA,131621.00,5217.39851,N,00017.67470,E,1,11,0.72,21087.0,M,45.7,M,,*56
$GPGGA,131651.00,5217.26547,N,00017.48849,E,1,11,0.82,20316.5,M,45.7,M,,*5E
$GPGGA,131721.00,5217.13667,N,00017.45771,E,1,11,0.73,19629.9,M,45.7,M,,*57
$GPGGA,131751.00,5217.06873,N,00017.45548,E,1,11,0.80,18934.8,M,45.7,M,,*58
$GPGGA,131821.00,5217.02217,N,00017.45005,E,1,11,0.73,18317.1,M,45.7,M,,*5E
$GPGGA,131851.00,5216.98466,N,00017.37250,E,1,11,0.73,17736.0,M,45.7,M,,*55
$GPGGA,131921.00,5216.98337,N,00017.49258,E,1,11,0.89,17149.6,M,45.7,M,,*5C
$GPGGA,131951.00,5216.99967,N,00017.67149,E,1,11,0.84,16611.2,M,45.7,M,,*58
$GPGGA,132021.00,5217.05054,N,00017.83253,E,1,11,0.84,16110.4,M,45.7,M,,*5A
$GPGGA,132051.00,5217.11400,N,00018.01749,E,1,11,0.84,15638.1,M,45.7,M,,*5D
$GPGGA,132121.00,5217.13220,N,00018.25841,E,1,10,0.84,15181.4,M,45.7,M,,*5D
$GPGGA,132151.00,5217.21326,N,00018.50237,E,1,10,0.84,14714.2,M,45.7,M,,*58
$GPGGA,132221.00,5217.32791,N,00018.72306,E,1,10,0.84,14275.9,M,45.7,M,,*5C
$GPGGA,132251.00,5217.39390,N,00018.98732,E,1,10,0.84,13852.9,M,45.7,M,,*5A
$GPGGA,132321.00,5217.51082,N,00019.23019,E,1,10,0.84,13439.2,M,45.7,M,,*57
$GPGGA,132351.00,5217.61964,N,00019.48239,E,1,10,0.84,13038.9,M,45.7,M,,*51
$GPGGA,132421.00,5217.68160,N,00019.71255,E,1,10,0.85,12658.1,M,45.7,M,,*5C
$GPGGA,132451.00,5217.79773,N,00019.99430,E,1,10,0.85,12291.2,M,45.7,M,,*5E
$GPGGA,132521.00,5217.87226,N,00020.23269,E,1,10,0.85,11929.1,M,45.7,M,,*55
$GPGGA,132551.00,5217.91763,N,00020.49725,E,1,10,0.85,11596.6,M,45.7,M,,*5F
$GPGGA,132621.00,5217.92613,N,00020.72229,E,1,11,0.85,11257.3,M,45.7,M,,*51
$GPGGA,132651.00,5217.90142,N,00020.85616,E,1,11,0.85,10902.1,M,45.7,M,,*5F
$GPGGA,132721.00,5217.89404,N,00021.02913,E,1,11,0.82,10578.8,M,45.7,M,,*5D
$GPGGA,132751.00,5217.87105,N,00021.21037,E,1,11,0.82,10268.8,M,45.7,M,,*58
$GPGGA,132821.00,5217.83419,N,00021.38402,E,1,11,0.82,9959.1,M,45.7,M,,*6E
$GPGGA,132851.00,5217.85705,N,00021.55224,E,1,11,0.82,9668.5,M,45.7,M,,*61
$GPGGA,132921.00,5217.92056,N,00021.67655,E,1,11,0.82,9384.1,M,45.7,M,,*60
$GPGGA,132951.00,5218.02238,N,00021.72215,E,1,11,0.83,9107.9,M,45.7,M,,*6F
$GPGGA,133021.00,5218.10929,N,00021.79384,E,1,11,0.83,8838.3,M,45.7,M,,*64
$GPGGA,133051.00,5218.23651,N,00021.93810,E,1,11,0.83,8557.7,M,45.7,M,,*61
$GPGGA,133121.00,5218.34693,N,00022.25668,E,1,11,0.92,8305.8,M,45.7,M,,*6E
$GPGGA,133151.00,5218.45997,N,00022.47272,E,1,11,0.92,8049.6,M,45.7,M,,*6A
$GPGGA,133221.00,5218.61876,N,00022.71763,E,1,10,0.93,7802.8,M,45.7,M,,*60
$GPGGA,133251.00,5218.79200,N,00023.03196,E,1,10,0.93,7568.9,M,45.7,M,,*6D
$GPGGA,133321.00,5218.98448,N,00023.36422,E,1,10,0.93,7291.8,M,45.7,M,,*62
$GPGGA,133351.00,5219.18684,N,00023.69157,E,1,10,0.93,7013.6,M,45.7,M,,*65
$GPGGA,133421.00,5219.37683,N,00023.98150,E,1,10,0.93,6743.4,M,45.7,M,,*67
$GPGGA,133451.00,5219.55990,N,00024.26256,E,1,10,0.93,6460.3,M,45.7,M,,*6B
$GPGGA,133521.00,5219.75131,N,00024.50656,E,1,10,0.93,6204.6,M,45.7,M,,*68
$GPGGA,133551.00,5219.90812,N,00024.73636,E,1,10,0.94,5981.7,M,45.7,M,,*68
$GPGGA,133621.00,5220.09878,N,00024.92275,E,1,10,0.94,5756.8,M,45.7,M,,*6D
$GPGGA,133651.00,5220.25129,N,00025.19046,E,1,10,0.94,5538.6,M,45.7,M,,*6D
$GPGGA,133721.00,5220.44684,N,00025.33099,E,1,10,0.94,5325.7,M,45.7,M,,*6D
$GPGGA,133751.00,5220.62135,N,00025.44208,E,1,10,0.94,5113.2,M,45.7,M,,*6B
$GPGGA,133821.00,5220.75227,N,00025.57468,E,1,10,0.94,4898.6,M,45.7,M,,*68
$GPGGA,133851.00,5220.91906,N,00025.71133,E,1,10,0.94,4688.6,M,45.7,M,,*6D
$GPGGA,133921.00,5221.06681,N,00025.90798,E,1,10,0.95,4463.4,M,45.7,M,,*68
$GPGGA,133951.00,5221.19299,N,00026.09936,E,1,10,0.95,4253.9,M,45.7,M,,*6D
$GPGGA,134021.00,5221.32887,N,00026.23117,E,1,10,0.95,4037.0,M,45.7,M,,*62
$GPGGA,134051.00,5221.44544,N,00026.35816,E,1,10,0.95,3785.0,M,45.7,M,,*60
$GPGGA,134121.00,5221.55166,N,00026.47663,E,1,10,0.95,3565.0,M,45.7,M,,*67
$GPGGA,134151.00,5221.64269,N,00026.52434,E,1,10,0.95,3369.5,M,45.7,M,,*65
$GPGGA,134221.00,5221.72144,N,00026.59657,E,1,10,0.95,3173.4,M,45.7,M,,*6E
$GPGGA,134251.00,5221.82544,N,00026.60792,E,1,10,0.96,2983.1,M,45.7,M,,*60
$GPGGA,134321.00,5221.91411,N,00026.62627,E,1,10,0.96,2761.0,M,45.7,M,,*6B
$GPGGA,134351.00,5222.01577,N,00026.67173,E,1,10,0.96,2558.3,M,45.7,M,,*6F
$GPGGA,134421.00,5222.11713,N,00026.76460,E,1,10,0.96,2370.4,M,45.7,M,,*62
$GPGGA,134451.00,5222.20246,N,00026.81874,E,1,10,0.96,2176.8,M,45.7,M,,*6B
$GPGGA,134521.00,5222.26834,N,00026.83593,E,1,10,0.96,1981.7,M,45.7,M,,*6E
$GPGGA,134551.00,5222.30761,N,00026.93248,E,1,10,0.97,1791.3,M,45.7,M,,*6B
$GPGGA,134621.00,5222.35384,N,00027.06360,E,1,10,0.97,1592.9,M,45.7,M,,*68
$GPGGA,134651.00,5222.40649,N,00027.18039,E,1,10,0.97,1401.2,M,45.7,M,,*69
$GPGGA,134721.00,5222.44275,N,00027.31421,E,1,10,0.97,1227.5,M,45.7,M,,*63
$GPGGA,134751.00,5222.48981,N,00027.42032,E,1,10,0.97,1052.5,M,45.7,M,,*6A
$GPGGA,134821.00,5222.54006,N,00027.48700,E,1,10,0.97,881.4,M,45.7,M,,*53
$GPGGA,134851.00,5222.58749,N,00027.53695,E,1,10,0.97,692.0,M,45.7,M,,*5B
$GPGGA,134921.00,5222.61990,N,00027.57277,E,1,10,0.97,494.2,M,45.7,M,,*57
$GPGGA,134951.00,5222.64844,N,00027.61314,E,1,10,0.98,292.5,M,45.7,M,,*54
$GPGGA,135021.00,5222.65941,N,00027.60410,E,1,10,0.98,102.4,M,45.7,M,,*57
