$GPGGA,134352.000,5205.0940,N,00207.3206,W,1,05,02.4,250.0,M,45.0,M,,*74
$GPGSA,A,3,03,07,18,19,22,,,,,,,,3.3,2.4,2.3*30
$GPRMC,134352.000,A,5205.0940,N,00207.3206,W,13.55,81.10,050612,,,A*79
$GPVTG,81.10,T,,,13.55,N,25.09,K,A*44
$GPGGA,134353.000,5205.0949,N,00207.3146,W,1,05,02.4,253.5,M,45.0,M,,*7D
$GPGSV,2,1,08,03,89,276,30,07,63,181,22,11,,,,12,,,*79
$GPGSV,2.2,08,18,73,111,35,19,33,057,27,22,57,173,37,27,,,*40
$GPRMC,134353.000,A,5205.0949,N,00207.3146,W,13.55,81.10,050612,,,A*76
$GPVTG,81.10,T,,,13.55,N,25.09,K,A*44
$GPGGA,134354.000,5205.0959,N,00207.3087,W,1,05,02.4,257.0,M,45.0,M,,*76
$GPRMC,134354.000,A,5205.0959,N,00207.3087,W,13.55,81.10,050612,,,A*7C
$GPVTG,81.10,T,,,13.55,N,25.09,K,A*44
$GPGGA,134355.000,5205.0968,N,00207.3028,W,1,05,02.4,260.6,M,45.0,M,,*72
$GPGSA,A,3,03,07,18,19,22,,,,,,,,3.3,2.4,2.3*30
$GPRMC,134355.000,A,5205.0968,N,00207.3028,W,13.55,81.10,050612,,,A*7A
$GPVTG,81.10,T,,,13.55,N,25.09,K,A*44
$GPGGA,134356.000,5205.0977,N,00207.2968,W,1,05,02.4,264.1,M,45.0,M,,*70
$GPGSV,2,1,08,03,89,276,30,07,63,181,22,11,,,,12,,,*79
$GPGSV,2.2,08,18,73,111,35,19,33,057,27,22,57,173,37,27,,,*40
$GPRMC,134356.000,A,5205.0977,N,00207.2968,W,13.55,81.10,050612,,,A*7B
$GPVTG,81.10,T,,,13.55,N,25.09,K,A*44
$GPGGA,134357.000,5205.0986,N,00207.2909,W,1,05,02.4,267.6,M,45.0,M,,*7C
$GPRMC,134357.000,A,5205.0986,N,00207.2909,W,13.55,81.10,050612,,,A*73
$GPVTG,81.10,T,,,13.55,N,25.09,K,A*44
$GPGGA,134358.000,5205.0996,N,00207.2850,W,1,05,02.4,271.1,M,45.0,M,,*7F
$GPGSA,A,3,03,07,18,19,22,,,,,,,,3.3,2.4,2.3*30
$GPRMC,134358.000,A,5205.0996,N,00207.2850,W,13.55,81.10,050612,,,A*70
$GPVTG,81.10,T,,,13.55,N,25.09,K,A*44
$GPGGA,134359.000,5205.1005,N,00207.2790,W,1,05,02.4,274.6,M,45.0,M,,*7D
$GPGSV,2,1,08,03,89,276,30,07,63,181,22,11,,,,12,,,*79
$GPGSV,2.2,08,18,73,111,35,19,33,057,27,22,57,173,37,27,,,*40
$GPRMC,134359.000,A,5205.1005,N,00207.2790,W,13.55,81.10,050612,,,A*70
$GPVTG,81.10,T,,,13.55,N,25.09,K,A*44
$GPGGA,134400.000,5205.1014,N,00207.2731,W,1,05,02.4,278.2,M,45.0,M,,*75
$GPRMC,134400.000,A,5205.1014,N,00207.2731,W,13.55,81.10,050612,,,A*70
$GPVTG,81.10,T,,,13.55,N,25.09,K,A*44
$GPGGA,134401.000,5205.1023,N,00207.2672,W,1,05,02.4,281.7,M,45.0,M,,*75
$GPGSA,A,3,03,07,18,19,22,,,,,,,,3.3,2.4,2.3*30
$GPRMC,134401.000,A,5205.1023,N,00207.2672,W,13.55,81.10,050612,,,A*73
$GPVTG,81.10,T,,,13.55,N,25.09,K,A*44
$GPGGA,134402.000,5205.1033,N,00207.2612,W,1,05,02.4,285.2,M,45.0,M,,*70
$GPGSV,2,1,08,03,89,276,30,07,63,181,22,11,,,,12,,,*79
$GPGSV,2.2,08,18,73,111,35,19,33,057,27,22,57,173,37,27,,,*40
$GPRMC,134402.000,A,5205.1033,N,00207.2612,W,13.55,81.10,050612,,,A*77
$GPVTG,81.10,T,,,13.55,N,25.09,K,A*44
$GPGGA,134403.000,5205.1042,N,00207.2553,W,1,05,02.4,288.7,M,45.0,M,,*79
$GPRMC,134403.000,A,5205.1042,N,00207.2553,W,13.55,81.10,050612,,,A*76
$GPVTG,81.10,T,,,13.55,N,25.09,K,A*44
$GPGGA,134404.000,5205.1051,N,00207.2494,W,1,05,02.4,292.3,M,45.0,M,,*79
$GPGSA,A,3,03,07,18,19,22,,,,,,,,3.3,2.4,2.3*30
$GPRMC,134404.000,A,5205.1051,N,00207.2494,W,13.55,81.10,050612,,,A*79
$GPVTG,81.10,T,,,13.55,N,25.09,K,A*44
$GPGGA,134405.000,5205.1061,N,00207.2434,W,1,05,02.4,295.8,M,45.0,M,,*7D
$GPGSV,2,1,08,03,89,276,30,07,63,181,22,11,,,,12,,,*79
$GPGSV,2.2,08,18,73,111,35,19,33,057,27,22,57,173,37,27,,,*40
$GPRMC,134405.000,A,5205.1061,N,00207.2434,W,13.55,81.10,050612,,,A*71
$GPVTG,81.10,T,,,13.55,N,25.09,K,A*44
$GPGGA,134406.000,5205.1070,N,00207.2375,W,1,05,02.4,299.3,M,45.0,M,,*7B
$GPRMC,134406.000,A,5205.1070,N,00207.2375,W,13.55,81.10,050612,,,A*70
$GPVTG,81.10,T,,,13.55,N,25.09,K,A*44
$GPGGA,134407.000,5205.1079,N,00207.2316,W,1,05,02.4,302.8,M,45.0,M,,*7E
$GPGSA,A,3,03,07,18,19,22,,,,,,,,3.3,2.4,2.3*30
$GPRMC,134407.000,A,5205.1079,N,00207.2316,W,13.55,81.10,050612,,,A*7D
$GPVTG,81.10,T,,,13.55,N,25.09,K,A*44
$GPGGA,134408.000,5205.1088,N,00207.2257,W,1,05,02.4,306.3,M,45.0,M,,*74
$GPGSV,2,1,08,03,89,276,30,07,63,181,22,11,,,,12,,,*79
$GPGSV,2.2,08,18,73,111,35,19,33,057,27,22,57,173,37,27,,,*40
$GPRMC,134408.000,A,5205.1088,N,00207.2257,W,13.55,81.10,050612,,,A*78
$GPVTG,81.10,T,,,13.55,N,25.09,K,A*44
$GPGGA,134409.000,5205.1098,N,00207.2197,W,1,05,02.4,309.9,M,45.0,M,,*7E
$GPRMC,134409.000,A,5205.1098,N,00207.2197,W,13.55,81.10,050612,,,A*77
$GPVTG,81.10,T,,,13.55,N,25.09,K,A*44
$GPGGA,134410.000,5205.1107,N,00207.2138,W,1,05,02.4,313.4,M,45.0,M,,*72
$GPGSA,A,3,03,07,18,19,22,,,,,,,,3.3,2.4,2.3*30
$GPRMC,134410.000,A,5205.1107,N,00207.2138,W,13.55,81.10,050612,,,A*7D
$GPVTG,81.10,T,,,13.55,N,25.09,K,A*44
$GPGGA,134411.000,5205.1116,N,00207.2079,W,1,05,02.4,316.9,M,45.0,M,,*7F
$GPGSV,2,1,08,03,89,276,30,07,63,181,22,11,,,,12,,,*79
$GPGSV,2.2,08,18,73,111,35,19,33,057,27,22,57,173,37,27,,,*40
$GPRMC,134411.000,A,5205.1116,N,00207.2079,W,13.55,81.10,050612,,,A*78
$GPVTG,81.10,T,,,13.55,N,25.09,K,A*44
$GPGGA,134412.000,5205.1126,N,00207.2019,W,1,05,02.4,320.4,M,45.0,M,,*71
$GPRMC,134412.000,A,5205.1126,N,00207.2019,W,13.55,81.10,050612,,,A*7E
$GPVTG,81.10,T,,,13.55,N,25.09,K,A*44
$GPGGA,134413.000,5205.1135,N,00207.1960,W,1,05,02.4,323.9,M,45.0,M,,*78
$GPGSA,A,3,03,07,18,19,22,,,,,,,,3.3,2.4,2.3*30
$GPRMC,134413.000,A,5205.1135,N,00207.1960,W,13.55,81.10,050612,,,A*79
$GPVTG,81.10,T,,,13.55,N,25.09,K,A*44
$GPGGA,134414.000,5205.1144,N,00207.1901,W,1,05,02.4,327.5,M,45.0,M,,*76
$GPGSV,2,1,08,03,89,276,30,07,63,181,22,11,,,,12,,,*79
$GPGSV,2.2,08,18,73,111,35,19,33,057,27,22,57,173,37,27,,,*40
$GPRMC,134414.000,A,5205.1144,N,00207.1901,W,13.55,81.10,050612,,,A*7F
$GPVTG,81.10,T,,,13.55,N,25.09,K,A*44
$GPGGA,134415.000,5205.1153,N,00207.1841,W,1,05,02.4,331.0,M,45.0,M,,*76
$GPRMC,134415.000,A,5205.1153,N,00207.1841,W,13.55,81.10,050612,,,A*7D
$GPVTG,81.10,T,,,13.55,N,25.09,K,A*44
$GPGGA,134416.000,5205.1163,N,00207.1782,W,1,05,02.4,334.5,M,45.0,M,,*76
$GPGSA,A,3,03,07,18,19,22,,,,,,,,3.3,2.4,2.3*30
$GPRMC,134416.000,A,5205.1163,N,00207.1782,W,13.55,81.10,050612,,,A*7D
$GPVTG,81.10,T,,,13.55,N,25.09,K,A*44
$GPGGA,134417.000,5205.1172,N,00207.1723,W,1,05,02.4,338.0,M,45.0,M,,*75
$GPGSV,2,1,08,03,89,276,30,07,63,181,22,11,,,,12,,,*79
$GPGSV,2.2,08,18,73,111,35,19,33,057,27,22,57,173,37,27,,,*40
$GPRMC,134417.000,A,5205.1172,N,00207.1723,W,13.55,81.10,050612,,,A*77
$GPVTG,81.10,T,,,13.55,N,25.09,K,A*44
$GPGGA,134418.000,5205.1181,N,00207.1663,W,1,05,02.4,341.5,M,45.0,M,,*78
$GPRMC,134418.000,A,5205.1181,N,00207.1663,W,13.55,81.10,050612,,,A*71
$GPVTG,81.10,T,,,13.55,N,25.09,K,A*44
$GPGGA,134419.000,5205.1191,N,00207.1604,W,1,05,02.4,345.1,M,45.0,M,,*79
$GPGSA,A,3,03,07,18,19,22,,,,,,,,3.3,2.4,2.3*30
$GPRMC,134419.000,A,5205.1191,N,00207.1604,W,13.55,81.10,050612,,,A*70
$GPVTG,81.10,T,,,13.55,N,25.09,K,A*44
$GPGGA,134420.000,5205.1200,N,00207.1545,W,1,05,02.4,348.6,M,45.0,M,,*74
$GPGSV,2,1,08,03,89,276,30,07,63,181,22,11,,,,12,,,*79
$GPGSV,2.2,08,18,73,111,35,19,33,057,27,22,57,173,37,27,,,*40
$GPRMC,134420.000,A,5205.1200,N,00207.1545,W,13.55,81.10,050612,,,A*77
$GPVTG,81.10,T,,,13.55,N,25.09,K,A*44
$GPGGA,134421.000,5205.1209,N,00207.1485,W,1,05,02.4,352.1,M,45.0,M,,*7D
$GPRMC,134421.000,A,5205.1209,N,00207.1485,W,13.55,81.10,050612,,,A*72
$GPVTG,81.10,T,,,13.55,N,25.09,K,A*44
$GPGGA,134422.000,5205.1218,N,00207.1426,W,1,05,02.4,355.6,M,45.0,M,,*77
$GPGSA,A,3,03,07,18,19,22,,,,,,,,3.3,2.4,2.3*30
$GPRMC,134422.000,A,5205.1218,N,00207.1426,W,13.55,81.10,050612,,,A*78
$GPVTG,81.10,T,,,13.55,N,25.09,K,A*44
$GPGGA,134423.000,5205.1228,N,00207.1367,W,1,05,02.4,359.2,M,45.0,M,,*7F
$GPGSV,2,1,08,03,89,276,30,07,63,181,22,11,,,,12,,,*79
$GPGSV,2.2,08,18,73,111,35,19,33,057,27,22,57,173,37,27,,,*40
$GPRMC,134423.000,A,5205.1228,N,00207.1367,W,13.55,81.10,050612,,,A*78
$GPVTG,81.10,T,,,13.55,N,25.09,K,A*44
$GPGGA,134424.000,5205.1237,N,00207.1307,W,1,05,02.4,362.7,M,45.0,M,,*7D
$GPRMC,134424.000,A,5205.1237,N,00207.1307,W,13.55,81.10,050612,,,A*77
$GPVTG,81.10,T,,,13.55,N,25.09,K,A*44
$GPGGA,134425.000,5205.1246,N,00207.1248,W,1,05,02.4,366.2,M,45.0,M,,*71
$GPGSA,A,3,03,07,18,19,22,,,,,,,,3.3,2.4,2.3*30
$GPRMC,134425.000,A,5205.1246,N,00207.1248,W,13.55,81.10,050612,,,A*7A
$GPVTG,81.10,T,,,13.55,N,25.09,K,A*44
$GPGGA,134426.000,5205.1256,N,00207.1189,W,1,05,02.4,369.7,M,45.0,M,,*77
$GPGSV,2,1,08,03,89,276,30,07,63,181,22,11,,,,12,,,*79
$GPGSV,2.2,08,18,73,111,35,19,33,057,27,22,57,173,37,27,,,*40
$GPRMC,134426.000,A,5205.1256,N,00207.1189,W,13.55,81.10,050612,,,A*76
$GPVTG,81.10,T,,,13.55,N,25.09,K,A*44
$GPGGA,134427.000,5205.1265,N,00207.1130,W,1,05,02.4,373.2,M,45.0,M,,*7A
$GPRMC,134427.000,A,5205.1265,N,00207.1130,W,13.55,81.10,050612,,,A*75
$GPVTG,81.10,T,,,13.55,N,25.09,K,A*44
$GPGGA,134428.000,5205.1274,N,00207.1070,W,1,05,02.4,376.8,M,45.0,M,,*7F
$GPGSA,A,3,03,07,18,19,22,,,,,,,,3.3,2.4,2.3*30
$GPRMC,134428.000,A,5205.1274,N,00207.1070,W,13.55,81.10,050612,,,A*7F
$GPVTG,81.10,T,,,13.55,N,25.09,K,A*44
$GPGGA,134429.000,5205.1283,N,00207.1011,W,1,05,02.4,380.3,M,45.0,M,,*73
$GPGSV,2,1,08,03,89,276,30,07,63,181,22,11,,,,12,,,*79
$GPGSV,2.2,08,18,73,111,35,19,33,057,27,22,57,173,37,27,,,*40
$GPRMC,134429.000,A,5205.1283,N,00207.1011,W,13.55,81.10,050612,,,A*71
$GPVTG,81.10,T,,,13.55,N,25.09,K,A*44
$GPGGA,134430.000,5205.1293,N,00207.0952,W,1,05,02.4,383.8,M,45.0,M,,*7D
$GPRMC,134430.000,A,5205.1293,N,00207.0952,W,13.55,81.10,050612,,,A*77
$GPVTG,81.10,T,,,13.55,N,25.09,K,A*44
$GPGGA,134431.000,5205.1302,N,00207.0892,W,1,05,02.4,387.3,M,45.0,M,,*77
$GPGSA,A,3,03,07,18,19,22,,,,,,,,3.3,2.4,2.3*30
$GPRMC,134431.000,A,5205.1302,N,00207.0892,W,13.55,81.10,050612,,,A*72
$GPVTG,81.10,T,,,13.55,N,25.09,K,A*44
$GPGGA,134432.000,5205.1311,N,00207.0833,W,1,05,02.4,390.8,M,45.0,M,,*70
$GPGSV,2,1,08,03,89,276,30,07,63,181,22,11,,,,12,,,*79
$GPGSV,2.2,08,18,73,111,35,19,33,057,27,22,57,173,37,27,,,*40
$GPRMC,134432.000,A,5205.1311,N,00207.0833,W,13.55,81.10,050612,,,A*78
$GPVTG,81.10,T,,,13.55,N,25.09,K,A*44
$GPGGA,134433.000,5205.1321,N,00207.0774,W,1,05,02.4,394.4,M,45.0,M,,*76
$GPRMC,134433.000,A,5205.1321,N,00207.0774,W,13.55,81.10,050612,,,A*76
$GPVTG,81.10,T,,,13.55,N,25.09,K,A*44
$GPGGA,134434.000,5205.1330,N,00207.0714,W,1,05,02.4,397.9,M,45.0,M,,*79
$GPGSA,A,3,03,07,18,19,22,,,,,,,,3.3,2.4,2.3*30
$GPRMC,134434.000,A,5205.1330,N,00207.0714,W,13.55,81.10,050612,,,A*77
$GPVTG,81.10,T,,,13.55,N,25.09,K,A*44
$GPGGA,134435.000,5205.1339,N,00207.0655,W,1,05,02.4,401.4,M,45.0,M,,*70
$GPGSV,2,1,08,03,89,276,30,07,63,181,22,11,,,,12,,,*79
$GPGSV,2.2,08,18,73,111,35,19,33,057,27,22,57,173,37,27,,,*40
$GPRMC,134435.000,A,5205.1339,N,00207.0655,W,13.55,81.10,050612,,,A*7B
$GPVTG,81.10,T,,,13.55,N,25.09,K,A*44
$GPGGA,134436.000,5205.1348,N,00207.0596,W,1,05,02.4,404.9,M,45.0,M,,*71
$GPRMC,134436.000,A,5205.1348,N,00207.0596,W,13.55,81.10,050612,,,A*72
$GPVTG,81.10,T,,,13.55,N,25.09,K,A*44
$GPGGA,134437.000,5205.1358,N,00207.0536,W,1,05,02.4,408.5,M,45.0,M,,*7B
$GPGSA,A,3,03,07,18,19,22,,,,,,,,3.3,2.4,2.3*30
$GPRMC,134437.000,A,5205.1358,N,00207.0536,W,13.55,81.10,050612,,,A*78
$GPVTG,81.10,T,,,13.55,N,25.09,K,A*44
$GPGGA,134438.000,5205.1367,N,00207.0477,W,1,05,02.4,412.0,M,45.0,M,,*72
$GPGSV,2,1,08,03,89,276,30,07,63,181,22,11,,,,12,,,*79
$GPGSV,2.2,08,18,73,111,35,19,33,057,27,22,57,173,37,27,,,*40
$GPRMC,134438.000,A,5205.1367,N,00207.0477,W,13.55,81.10,050612,,,A*7F
$GPVTG,81.10,T,,,13.55,N,25.09,K,A*44
$GPGGA,134439.000,5205.1376,N,00207.0418,W,1,05,02.4,415.5,M,45.0,M,,*78
$GPRMC,134439.000,A,5205.1376,N,00207.0418,W,13.55,81.10,050612,,,A*77
$GPVTG,81.10,T,,,13.55,N,25.09,K,A*44
$GPGGA,134440.000,5205.1386,N,00207.0358,W,1,05,02.4,419.0,M,45.0,M,,*73
$GPGSA,A,3,03,07,18,19,22,,,,,,,,3.3,2.4,2.3*30
$GPRMC,134440.000,A,5205.1386,N,00207.0358,W,13.55,81.10,050612,,,A*75
$GPVTG,81.10,T,,,13.55,N,25.09,K,A*44
$GPGGA,134441.000,5205.1395,N,00207.0299,W,1,05,02.4,422.5,M,45.0,M,,*71
$GPGSV,2,1,08,03,89,276,30,07,63,181,22,11,,,,12,,,*79
$GPGSV,2.2,08,18,73,111,35,19,33,057,27,22,57,173,37,27,,,*40
$GPRMC,134441.000,A,5205.1395,N,00207.0299,W,13.55,81.10,050612,,,A*7A
$GPVTG,81.10,T,,,13.55,N,25.09,K,A*44
$GPGGA,134442.000,5205.1404,N,00207.0240,W,1,05,02.4,426.1,M,45.0,M,,*79
$GPRMC,134442.000,A,5205.1404,N,00207.0240,W,13.55,81.10,050612,,,A*72
$GPVTG,81.10,T,,,13.55,N,25.09,K,A*44
$GPGGA,134443.000,5205.1413,N,00207.0180,W,1,05,02.4,429.6,M,45.0,M,,*79
$GPGSA,A,3,03,07,18,19,22,,,,,,,,3.3,2.4,2.3*30
$GPRMC,134443.000,A,5205.1413,N,00207.0180,W,13.55,81.10,050612,,,A*7A
$GPVTG,81.10,T,,,13.55,N,25.09,K,A*44
$GPGGA,134444.000,5205.1423,N,00207.0121,W,1,05,02.4,433.1,M,45.0,M,,*7A
$GPGSV,2,1,08,03,89,276,30,07,63,181,22,11,,,,12,,,*79
$GPGSV,2.2,08,18,73,111,35,19,33,057,27,22,57,173,37,27,,,*40
$GPRMC,134444.000,A,5205.1423,N,00207.0121,W,13.55,81.10,050612,,,A*75
$GPVTG,81.10,T,,,13.55,N,25.09,K,A*44
$GPGGA,134445.000,5205.1432,N,00207.0062,W,1,05,02.4,436.6,M,45.0,M,,*7F
$GPRMC,134445.000,A,5205.1432,N,00207.0062,W,13.55,81.10,050612,,,A*72
$GPVTG,81.10,T,,,13.55,N,25.09,K,A*44
$GPGGA,134446.000,5205.1441,N,00207.0003,W,1,05,02.4,440.1,M,45.0,M,,*79
$GPGSA,A,3,03,07,18,19,22,,,,,,,,3.3,2.4,2.3*30
$GPRMC,134446.000,A,5205.1441,N,00207.0003,W,13.55,81.10,050612,,,A*72
$GPVTG,81.10,T,,,13.55,N,25.09,K,A*44
$GPGGA,134447.000,5205.1451,N,00206.9943,W,1,05,02.4,443.7,M,45.0,M,,*79
$GPGSV,2,1,08,03,89,276,30,07,63,181,22,11,,,,12,,,*79
$GPGSV,2.2,08,18,73,111,35,19,33,057,27,22,57,173,37,27,,,*40
$GPRMC,134447.000,A,5205.1451,N,00206.9943,W,13.55,81.10,050612,,,A*77
$GPVTG,81.10,T,,,13.55,N,25.09,K,A*44
$GPGGA,134448.000,5205.1460,N,00206.9884,W,1,05,02.4,447.2,M,45.0,M,,*7F
$GPRMC,134448.000,A,5205.1460,N,00206.9884,W,13.55,81.10,050612,,,A*70
$GPVTG,81.10,T,,,13.55,N,25.09,K,A*44
$GPGGA,134449.000,5205.1469,N,00206.9825,W,1,05,02.4,450.7,M,45.0,M,,*7F
$GPGSA,A,3,03,07,18,19,22,,,,,,,,3.3,2.4,2.3*30
$GPRMC,134449.000,A,5205.1469,N,00206.9825,W,13.55,81.10,050612,,,A*73
$GPVTG,81.10,T,,,13.55,N,25.09,K,A*44
$GPGGA,134450.000,5205.1478,N,00206.9765,W,1,05,02.4,454.2,M,45.0,M,,*7D
$GPGSV,2,1,08,03,89,276,30,07,63,181,22,11,,,,12,,,*79
$GPGSV,2.2,08,18,73,111,35,19,33,057,27,22,57,173,37,27,,,*40
$GPRMC,134450.000,A,5205.1478,N,00206.9765,W,13.55,81.10,050612,,,A*70
$GPVTG,81.10,T,,,13.55,N,25.09,K,A*44
$GPGGA,134451.000,5205.1488,N,00206.9706,W,1,05,02.4,457.7,M,45.0,M,,*70
$GPRMC,134451.000,A,5205.1488,N,00206.9706,W,13.55,81.10,050612,,,A*7B
$GPVTG,81.10,T,,,13.55,N,25.09,K,A*44
$GPGGA,134452.000,5205.1497,N,00206.9647,W,1,05,02.4,461.3,M,45.0,M,,*78
$GPGSA,A,3,03,07,18,19,22,,,,,,,,3.3,2.4,2.3*30
$GPRMC,134452.000,A,5205.1497,N,00206.9647,W,13.55,81.10,050612,,,A*72
$GPVTG,81.10,T,,,13.55,N,25.09,K,A*44
$GPGGA,134453.000,5205.1506,N,00206.9587,W,1,05,02.4,464.8,M,45.0,M,,*71
$GPGSV,2,1,08,03,89,276,30,07,63,181,22,11,,,,12,,,*79
$GPGSV,2.2,08,18,73,111,35,19,33,057,27,22,57,173,37,27,,,*40
$GPRMC,134453.000,A,5205.1506,N,00206.9587,W,13.55,81.10,050612,,,A*75
$GPVTG,81.10,T,,,13.55,N,25.09,K,A*44
$GPGGA,134454.000,5205.1516,N,00206.9528,W,1,05,02.4,468.3,M,45.0,M,,*75
$GPRMC,134454.000,A,5205.1516,N,00206.9528,W,13.55,81.10,050612,,,A*76
$GPVTG,81.10,T,,,13.55,N,25.09,K,A*44
$GPGGA,134455.000,5205.1525,N,00206.9469,W,1,05,02.4,471.8,M,45.0,M,,*73
$GPGSA,A,3,03,07,18,19,22,,,,,,,,3.3,2.4,2.3*30
$GPRMC,134455.000,A,5205.1525,N,00206.9469,W,13.55,81.10,050612,,,A*73
$GPVTG,81.10,T,,,13.55,N,25.09,K,A*44
$GPGGA,134456.000,5205.1534,N,00206.9409,W,1,05,02.4,475.4,M,45.0,M,,*7E
$GPGSV,2,1,08,03,89,276,30,07,63,181,22,11,,,,12,,,*79
$GPGSV,2.2,08,18,73,111,35,19,33,057,27,22,57,173,37,27,,,*40
$GPRMC,134456.000,A,5205.1534,N,00206.9409,W,13.55,81.10,050612,,,A*76
$GPVTG,81.10,T,,,13.55,N,25.09,K,A*44
$GPGGA,134457.000,5205.1543,N,00206.9350,W,1,05,02.4,478.9,M,45.0,M,,*74
$GPRMC,134457.000,A,5205.1543,N,00206.9350,W,13.55,81.10,050612,,,A*7C
$GPVTG,81.10,T,,,13.55,N,25.09,K,A*44
$GPGGA,134458.000,5205.1553,N,00206.9291,W,1,05,02.4,482.4,M,45.0,M,,*7E
$GPGSA,A,3,03,07,18,19,22,,,,,,,,3.3,2.4,2.3*30
$GPRMC,134458.000,A,5205.1553,N,00206.9291,W,13.55,81.10,050612,,,A*7E
$GPVTG,81.10,T,,,13.55,N,25.09,K,A*44
$GPGGA,134459.000,5205.1562,N,00206.9231,W,1,05,02.4,485.9,M,45.0,M,,*7D
$GPGSV,2,1,08,03,89,276,30,07,63,181,22,11,,,,12,,,*79
$GPGSV,2.2,08,18,73,111,35,19,33,057,27,22,57,173,37,27,,,*40
$GPRMC,134459.000,A,5205.1562,N,00206.9231,W,13.55,81.10,050612,,,A*77
$GPVTG,81.10,T,,,13.55,N,25.09,K,A*44
$GPGGA,134500.000,5205.1571,N,00206.9172,W,1,05,02.4,489.4,M,45.0,M,,*77
$GPRMC,134500.000,A,5205.1571,N,00206.9172,W,13.55,81.10,050612,,,A*7C
$GPVTG,81.10,T,,,13.55,N,25.09,K,A*44
$GPGGA,134501.000,5205.1581,N,00206.9113,W,1,05,02.4,493.0,M,45.0,M,,*71
$GPGSA,A,3,03,07,18,19,22,,,,,,,,3.3,2.4,2.3*30
$GPRMC,134501.000,A,5205.1581,N,00206.9113,W,13.55,81.10,050612,,,A*75
$GPVTG,81.10,T,,,13.55,N,25.09,K,A*44
$GPGGA,134502.000,5205.1590,N,00206.9053,W,1,05,02.4,496.5,M,45.0,M,,*77
$GPGSV,2,1,08,03,89,276,30,07,63,181,22,11,,,,12,,,*79
$GPGSV,2.2,08,18,73,111,35,19,33,057,27,22,57,173,37,27,,,*40
$GPRMC,134502.000,A,5205.1590,N,00206.9053,W,13.55,81.10,050612,,,A*73
$GPVTG,81.10,T,,,13.55,N,25.09,K,A*44
$GPGGA,134503.000,5205.1599,N,00206.8994,W,1,05,02.4,500.0,M,45.0,M,,*77
$GPRMC,134503.000,A,5205.1599,N,00206.8994,W,15.03,86.42,050612,,,A*7D
$GPVTG,86.42,T,,,15.03,N,27.84,K,A*46
$GPGGA,134504.000,5205.1603,N,00206.8927,W,1,05,02.4,503.5,M,45.0,M,,*7E
$GPGSA,A,3,03,07,18,19,22,,,,,,,,3.3,2.4,2.3*30
$GPRMC,134504.000,A,5205.1603,N,00206.8927,W,15.03,86.42,050612,,,A*72
$GPVTG,86.42,T,,,15.03,N,27.84,K,A*46
$GPGGA,134505.000,5205.1608,N,00206.8859,W,1,05,02.4,507.0,M,45.0,M,,*7D
$GPGSV,2,1,08,03,89,276,30,07,63,181,22,11,,,,12,,,*79
$GPGSV,2.2,08,18,73,111,35,19,33,057,27,22,57,173,37,27,,,*40
$GPRMC,134505.000,A,5205.1608,N,00206.8859,W,15.03,86.42,050612,,,A*70
$GPVTG,86.42,T,,,15.03,N,27.84,K,A*46
$GPGGA,134506.000,5205.1612,N,00206.8791,W,1,05,02.4,510.6,M,45.0,M,,*7E
$GPRMC,134506.000,A,5205.1612,N,00206.8791,W,15.03,86.42,050612,,,A*73
$GPVTG,86.42,T,,,15.03,N,27.84,K,A*46
$GPGGA,134507.000,5205.1616,N,00206.8724,W,1,05,02.4,514.1,M,45.0,M,,*76
$GPGSA,A,3,03,07,18,19,22,,,,,,,,3.3,2.4,2.3*30
$GPRMC,134507.000,A,5205.1616,N,00206.8724,W,15.03,86.42,050612,,,A*78
$GPVTG,86.42,T,,,15.03,N,27.84,K,A*46
$GPGGA,134508.000,5205.1620,N,00206.8656,W,1,05,02.4,517.6,M,45.0,M,,*7C
$GPGSV,2,1,08,03,89,276,30,07,63,181,22,11,,,,12,,,*79
$GPGSV,2.2,08,18,73,111,35,19,33,057,27,22,57,173,37,27,,,*40
$GPRMC,134508.000,A,5205.1620,N,00206.8656,W,15.03,86.42,050612,,,A*76
$GPVTG,86.42,T,,,15.03,N,27.84,K,A*46
$GPGGA,134509.000,5205.1624,N,00206.8589,W,1,05,02.4,521.1,M,45.0,M,,*7A
$GPRMC,134509.000,A,5205.1624,N,00206.8589,W,15.03,86.42,050612,,,A*72
$GPVTG,86.42,T,,,15.03,N,27.84,K,A*46
$GPGGA,134510.000,5205.1629,N,00206.8521,W,1,05,02.4,524.6,M,45.0,M,,*7F
$GPGSA,A,3,03,07,18,19,22,,,,,,,,3.3,2.4,2.3*30
$GPRMC,134510.000,A,5205.1629,N,00206.8521,W,15.03,86.42,050612,,,A*75
$GPVTG,86.42,T,,,15.03,N,27.84,K,A*46
$GPGGA,134511.000,5205.1633,N,00206.8454,W,1,05,02.4,528.2,M,45.0,M,,*7E
$GPGSV,2,1,08,03,89,276,30,07,63,181,22,11,,,,12,,,*79
$GPGSV,2.2,08,18,73,111,35,19,33,057,27,22,57,173,37,27,,,*40
$GPRMC,134511.000,A,5205.1633,N,00206.8454,W,15.03,86.42,050612,,,A*7C
$GPVTG,86.42,T,,,15.03,N,27.84,K,A*46
$GPGGA,134512.000,5205.1637,N,00206.8386,W,1,05,02.4,531.7,M,45.0,M,,*7C
$GPRMC,134512.000,A,5205.1637,N,00206.8386,W,15.03,86.42,050612,,,A*73
$GPVTG,86.42,T,,,15.03,N,27.84,K,A*46
$GPGGA,134513.000,5205.1641,N,00206.8318,W,1,05,02.4,535.2,M,45.0,M,,*7A
$GPGSA,A,3,03,07,18,19,22,,,,,,,,3.3,2.4,2.3*30
$GPRMC,134513.000,A,5205.1641,N,00206.8318,W,15.03,86.42,050612,,,A*74
$GPVTG,86.42,T,,,15.03,N,27.84,K,A*46
$GPGGA,134514.000,5205.1646,N,00206.8251,W,1,05,02.4,538.7,M,45.0,M,,*7E
$GPGSV,2,1,08,03,89,276,30,07,63,181,22,11,,,,12,,,*79
$GPGSV,2.2,08,18,73,111,35,19,33,057,27,22,57,173,37,27,,,*40
$GPRMC,134514.000,A,5205.1646,N,00206.8251,W,15.03,86.42,050612,,,A*78
$GPVTG,86.42,T,,,15.03,N,27.84,K,A*46
$GPGGA,134515.000,5205.1650,N,00206.8183,W,1,05,02.4,542.3,M,45.0,M,,*7D
$GPRMC,134515.000,A,5205.1650,N,00206.8183,W,15.03,86.42,050612,,,A*72
$GPVTG,86.42,T,,,15.03,N,27.84,K,A*46
$GPGGA,134516.000,5205.1654,N,00206.8116,W,1,05,02.4,545.8,M,45.0,M,,*7A
$GPGSA,A,3,03,07,18,19,22,,,,,,,,3.3,2.4,2.3*30
$GPRMC,134516.000,A,5205.1654,N,00206.8116,W,15.03,86.42,050612,,,A*79
$GPVTG,86.42,T,,,15.03,N,27.84,K,A*46
$GPGGA,134517.000,5205.1658,N,00206.8048,W,1,05,02.4,549.3,M,45.0,M,,*7A
$GPGSV,2,1,08,03,89,276,30,07,63,181,22,11,,,,12,,,*79
$GPGSV,2.2,08,18,73,111,35,19,33,057,27,22,57,173,37,27,,,*40
$GPRMC,134517.000,A,5205.1658,N,00206.8048,W,15.03,86.42,050612,,,A*7E
$GPVTG,86.42,T,,,15.03,N,27.84,K,A*46
$GPGGA,134518.000,5205.1662,N,00206.7981,W,1,05,02.4,552.8,M,45.0,M,,*7E
$GPRMC,134518.000,A,5205.1662,N,00206.7981,W,15.03,86.42,050612,,,A*7B
$GPVTG,86.42,T,,,15.03,N,27.84,K,A*46
$GPGGA,134519.000,5205.1667,N,00206.7913,W,1,05,02.4,556.3,M,45.0,M,,*7E
$GPGSA,A,3,03,07,18,19,22,,,,,,,,3.3,2.4,2.3*30
$GPRMC,134519.000,A,5205.1667,N,00206.7913,W,15.03,86.42,050612,,,A*74
$GPVTG,86.42,T,,,15.03,N,27.84,K,A*46
$GPGGA,134520.000,5205.1671,N,00206.7845,W,1,05,02.4,559.9,M,45.0,M,,*74
$GPGSV,2,1,08,03,89,276,30,07,63,181,22,11,,,,12,,,*79
$GPGSV,2.2,08,18,73,111,35,19,33,057,27,22,57,173,37,27,,,*40
$GPRMC,134520.000,A,5205.1671,N,00206.7845,W,15.03,86.42,050612,,,A*7B
$GPVTG,86.42,T,,,15.03,N,27.84,K,A*46
$GPGGA,134521.000,5205.1675,N,00206.7778,W,1,05,02.4,563.4,M,45.0,M,,*74
$GPRMC,134521.000,A,5205.1675,N,00206.7778,W,15.03,86.42,050612,,,A*7F
$GPVTG,86.42,T,,,15.03,N,27.84,K,A*46
$GPGGA,134522.000,5205.1679,N,00206.7710,W,1,05,02.4,566.9,M,45.0,M,,*7D
$GPGSA,A,3,03,07,18,19,22,,,,,,,,3.3,2.4,2.3*30
$GPRMC,134522.000,A,5205.1679,N,00206.7710,W,15.03,86.42,050612,,,A*7E
$GPVTG,86.42,T,,,15.03,N,27.84,K,A*46
$GPGGA,134523.000,5205.1684,N,00206.7643,W,1,05,02.4,570.4,M,45.0,M,,*73
$GPGSV,2,1,08,03,89,276,30,07,63,181,22,11,,,,12,,,*79
$GPGSV,2.2,08,18,73,111,35,19,33,057,27,22,57,173,37,27,,,*40
$GPRMC,134523.000,A,5205.1684,N,00206.7643,W,15.03,86.42,050612,,,A*7A
$GPVTG,86.42,T,,,15.03,N,27.84,K,A*46
$GPGGA,134524.000,5205.1688,N,00206.7575,W,1,05,02.4,573.9,M,45.0,M,,*70
$GPRMC,134524.000,A,5205.1688,N,00206.7575,W,15.03,86.42,050612,,,A*77
$GPVTG,86.42,T,,,15.03,N,27.84,K,A*46
$GPGGA,134525.000,5205.1692,N,00206.7508,W,1,05,02.4,577.5,M,45.0,M,,*78
$GPGSA,A,3,03,07,18,19,22,,,,,,,,3.3,2.4,2.3*30
$GPRMC,134525.000,A,5205.1692,N,00206.7508,W,15.03,86.42,050612,,,A*77
$GPVTG,86.42,T,,,15.03,N,27.84,K,A*46
$GPGGA,134526.000,5205.1696,N,00206.7440,W,1,05,02.4,581.0,M,45.0,M,,*7E
$GPGSV,2,1,08,03,89,276,30,07,63,181,22,11,,,,12,,,*79
$GPGSV,2.2,08,18,73,111,35,19,33,057,27,22,57,173,37,27,,,*40
$GPRMC,134526.000,A,5205.1696,N,00206.7440,W,15.03,86.42,050612,,,A*7D
$GPVTG,86.42,T,,,15.03,N,27.84,K,A*46
$GPGGA,134527.000,5205.1700,N,00206.7372,W,1,05,02.4,584.5,M,45.0,M,,*77
$GPRMC,134527.000,A,5205.1700,N,00206.7372,W,15.03,86.42,050612,,,A*74
$GPVTG,86.42,T,,,15.03,N,27.84,K,A*46
$GPGGA,134528.000,5205.1705,N,00206.7305,W,1,05,02.4,588.0,M,45.0,M,,*74
$GPGSA,A,3,03,07,18,19,22,,,,,,,,3.3,2.4,2.3*30
$GPRMC,134528.000,A,5205.1705,N,00206.7305,W,15.03,86.42,050612,,,A*7E
$GPVTG,86.42,T,,,15.03,N,27.84,K,A*46
$GPGGA,134529.000,5205.1709,N,00206.7237,W,1,05,02.4,591.5,M,45.0,M,,*74
$GPGSV,2,1,08,03,89,276,30,07,63,181,22,11,,,,12,,,*79
$GPGSV,2.2,08,18,73,111,35,19,33,057,27,22,57,173,37,27,,,*40
$GPRMC,134529.000,A,5205.1709,N,00206.7237,W,15.03,86.42,050612,,,A*73
$GPVTG,86.42,T,,,15.03,N,27.84,K,A*46
$GPGGA,134530.000,5205.1713,N,00206.7170,W,1,05,02.4,595.1,M,45.0,M,,*77
$GPRMC,134530.000,A,5205.1713,N,00206.7170,W,15.03,86.42,050612,,,A*70
$GPVTG,86.42,T,,,15.03,N,27.84,K,A*46
$GPGGA,134531.000,5205.1717,N,00206.7102,W,1,05,02.4,598.6,M,45.0,M,,*7D
$GPGSA,A,3,03,07,18,19,22,,,,,,,,3.3,2.4,2.3*30
$GPRMC,134531.000,A,5205.1717,N,00206.7102,W,15.03,86.42,050612,,,A*70
$GPVTG,86.42,T,,,15.03,N,27.84,K,A*46
$GPGGA,134532.000,5205.1722,N,00206.7035,W,1,05,02.4,602.1,M,45.0,M,,*7A
$GPGSV,2,1,08,03,89,276,30,07,63,181,22,11,,,,12,,,*79
$GPGSV,2.2,08,18,73,111,35,19,33,057,27,22,57,173,37,27,,,*40
$GPRMC,134532.000,A,5205.1722,N,00206.7035,W,15.03,86.42,050612,,,A*70
$GPVTG,86.42,T,,,15.03,N,27.84,K,A*46
$GPGGA,134533.000,5205.1726,N,00206.6967,W,1,05,02.4,605.6,M,45.0,M,,*70
$GPRMC,134533.000,A,5205.1726,N,00206.6967,W,15.03,86.42,050612,,,A*7A
$GPVTG,86.42,T,,,15.03,N,27.84,K,A*46
$GPGGA,134534.000,5205.1730,N,00206.6900,W,1,05,02.4,609.2,M,45.0,M,,*79
$GPGSA,A,3,03,07,18,19,22,,,,,,,,3.3,2.4,2.3*30
$GPRMC,134534.000,A,5205.1730,N,00206.6900,W,15.03,86.42,050612,,,A*7B
$GPVTG,86.42,T,,,15.03,N,27.84,K,A*46
$GPGGA,134535.000,5205.1734,N,00206.6832,W,1,05,02.4,612.7,M,45.0,M,,*73
$GPGSV,2,1,08,03,89,276,30,07,63,181,22,11,,,,12,,,*79
$GPGSV,2.2,08,18,73,111,35,19,33,057,27,22,57,173,37,27,,,*40
$GPRMC,134535.000,A,5205.1734,N,00206.6832,W,15.03,86.42,050612,,,A*7E
$GPVTG,86.42,T,,,15.03,N,27.84,K,A*46
$GPGGA,134536.000,5205.1738,N,00206.6764,W,1,05,02.4,616.2,M,45.0,M,,*71
$GPRMC,134536.000,A,5205.1738,N,00206.6764,W,15.03,86.42,050612,,,A*7D
$GPVTG,86.42,T,,,15.03,N,27.84,K,A*46
$GPGGA,134537.000,5205.1743,N,00206.6697,W,1,05,02.4,619.7,M,45.0,M,,*7B
$GPGSA,A,3,03,07,18,19,22,,,,,,,,3.3,2.4,2.3*30
$GPRMC,134537.000,A,5205.1743,N,00206.6697,W,15.03,86.42,050612,,,A*7D
$GPVTG,86.42,T,,,15.03,N,27.84,K,A*46
$GPGGA,134538.000,5205.1747,N,00206.6629,W,1,05,02.4,623.2,M,45.0,M,,*79
$GPGSV,2,1,08,03,89,276,30,07,63,181,22,11,,,,12,,,*79
$GPGSV,2.2,08,18,73,111,35,19,33,057,27,22,57,173,37,27,,,*40
$GPRMC,134538.000,A,5205.1747,N,00206.6629,W,15.03,86.42,050612,,,A*73
$GPVTG,86.42,T,,,15.03,N,27.84,K,A*46
$GPGGA,134539.000,5205.1751,N,00206.6562,W,1,05,02.4,626.8,M,45.0,M,,*7C
$GPRMC,134539.000,A,5205.1751,N,00206.6562,W,15.03,86.42,050612,,,A*79
$GPVTG,86.42,T,,,15.03,N,27.84,K,A*46
$GPGGA,134540.000,5205.1755,N,00206.6494,W,1,05,02.4,630.3,M,45.0,M,,*72
$GPGSA,A,3,03,07,18,19,22,,,,,,,,3.3,2.4,2.3*30
$GPRMC,134540.000,A,5205.1755,N,00206.6494,W,15.03,86.42,050612,,,A*7B
$GPVTG,86.42,T,,,15.03,N,27.84,K,A*46
$GPGGA,134541.000,5205.1760,N,00206.6427,W,1,05,02.4,633.8,M,45.0,M,,*75
$GPGSV,2,1,08,03,89,276,30,07,63,181,22,11,,,,12,,,*79
$GPGSV,2.2,08,18,73,111,35,19,33,057,27,22,57,173,37,27,,,*40
$GPRMC,134541.000,A,5205.1760,N,00206.6427,W,15.03,86.42,050612,,,A*74
$GPVTG,86.42,T,,,15.03,N,27.84,K,A*46
$GPGGA,134542.000,5205.1764,N,00206.6359,W,1,05,02.4,637.3,M,45.0,M,,*73
$GPRMC,134542.000,A,5205.1764,N,00206.6359,W,15.03,86.42,050612,,,A*7D
$GPVTG,86.42,T,,,15.03,N,27.84,K,A*46
$GPGGA,134543.000,5205.1768,N,00206.6291,W,1,05,02.4,640.8,M,45.0,M,,*70
$GPGSA,A,3,03,07,18,19,22,,,,,,,,3.3,2.4,2.3*30
$GPRMC,134543.000,A,5205.1768,N,00206.6291,W,15.03,86.42,050612,,,A*75
$GPVTG,86.42,T,,,15.03,N,27.84,K,A*46
$GPGGA,134544.000,5205.1772,N,00206.6224,W,1,05,02.4,644.4,M,45.0,M,,*7A
$GPGSV,2,1,08,03,89,276,30,07,63,181,22,11,,,,12,,,*79
$GPGSV,2.2,08,18,73,111,35,19,33,057,27,22,57,173,37,27,,,*40
$GPRMC,134544.000,A,5205.1772,N,00206.6224,W,15.03,86.42,050612,,,A*77
$GPVTG,86.42,T,,,15.03,N,27.84,K,A*46
$GPGGA,134545.000,5205.1776,N,00206.6156,W,1,05,02.4,647.9,M,45.0,M,,*77
$GPRMC,134545.000,A,5205.1776,N,00206.6156,W,15.03,86.42,050612,,,A*74
$GPVTG,86.42,T,,,15.03,N,27.84,K,A*46
$GPGGA,134546.000,5205.1781,N,00206.6089,W,1,05,02.4,651.4,M,45.0,M,,*75
$GPGSA,A,3,03,07,18,19,22,,,,,,,,3.3,2.4,2.3*30
$GPRMC,134546.000,A,5205.1781,N,00206.6089,W,15.03,86.42,050612,,,A*7C
$GPVTG,86.42,T,,,15.03,N,27.84,K,A*46
$GPGGA,134547.000,5205.1785,N,00206.6021,W,1,05,02.4,654.9,M,45.0,M,,*7A
$GPGSV,2,1,08,03,89,276,30,07,63,181,22,11,,,,12,,,*79
$GPGSV,2.2,08,18,73,111,35,19,33,057,27,22,57,173,37,27,,,*40
$GPRMC,134547.000,A,5205.1785,N,00206.6021,W,15.03,86.42,050612,,,A*7B
$GPVTG,86.42,T,,,15.03,N,27.84,K,A*46
$GPGGA,134548.000,5205.1789,N,00206.5954,W,1,05,02.4,658.5,M,45.0,M,,*71
$GPRMC,134548.000,A,5205.1789,N,00206.5954,W,15.03,86.42,050612,,,A*70
$GPVTG,86.42,T,,,15.03,N,27.84,K,A*46
$GPGGA,134549.000,5205.1793,N,00206.5886,W,1,05,02.4,662.0,M,45.0,M,,*79
$GPGSA,A,3,03,07,18,19,22,,,,,,,,3.3,2.4,2.3*30
$GPRMC,134549.000,A,5205.1793,N,00206.5886,W,15.03,86.42,050612,,,A*74
$GPVTG,86.42,T,,,15.03,N,27.84,K,A*46
$GPGGA,134550.000,5205.1798,N,00206.5818,W,1,05,02.4,665.5,M,45.0,M,,*7F
$GPGSV,2,1,08,03,89,276,30,07,63,181,22,11,,,,12,,,*79
$GPGSV,2.2,08,18,73,111,35,19,33,057,27,22,57,173,37,27,,,*40
$GPRMC,134550.000,A,5205.1798,N,00206.5818,W,15.03,86.42,050612,,,A*70
$GPVTG,86.42,T,,,15.03,N,27.84,K,A*46
$GPGGA,134551.000,5205.1802,N,00206.5751,W,1,05,02.4,669.0,M,45.0,M,,*79
$GPRMC,134551.000,A,5205.1802,N,00206.5751,W,15.03,86.42,050612,,,A*7F
$GPVTG,86.42,T,,,15.03,N,27.84,K,A*46
$GPGGA,134552.000,5205.1806,N,00206.5683,W,1,05,02.4,672.5,M,45.0,M,,*7F
$GPGSA,A,3,03,07,18,19,22,,,,,,,,3.3,2.4,2.3*30
$GPRMC,134552.000,A,5205.1806,N,00206.5683,W,15.03,86.42,050612,,,A*76
$GPVTG,86.42,T,,,15.03,N,27.84,K,A*46
$GPGGA,134553.000,5205.1810,N,00206.5616,W,1,05,02.4,676.1,M,45.0,M,,*75
$GPGSV,2,1,08,03,89,276,30,07,63,181,22,11,,,,12,,,*79
$GPGSV,2.2,08,18,73,111,35,19,33,057,27,22,57,173,37,27,,,*40
$GPRMC,134553.000,A,5205.1810,N,00206.5616,W,15.03,86.42,050612,,,A*7C
$GPVTG,86.42,T,,,15.03,N,27.84,K,A*46
$GPGGA,134554.000,5205.1814,N,00206.5548,W,1,05,02.4,679.6,M,45.0,M,,*76
$GPRMC,134554.000,A,5205.1814,N,00206.5548,W,15.03,86.42,050612,,,A*77
$GPVTG,86.42,T,,,15.03,N,27.84,K,A*46
$GPGGA,134555.000,5205.1819,N,00206.5481,W,1,05,02.4,683.1,M,45.0,M,,*7C
$GPGSA,A,3,03,07,18,19,22,,,,,,,,3.3,2.4,2.3*30
$GPRMC,134555.000,A,5205.1819,N,00206.5481,W,15.03,86.42,050612,,,A*7F
$GPVTG,86.42,T,,,15.03,N,27.84,K,A*46
$GPGGA,134556.000,5205.1823,N,00206.5413,W,1,05,02.4,686.6,M,45.0,M,,*7F
$GPGSV,2,1,08,03,89,276,30,07,63,181,22,11,,,,12,,,*79
$GPGSV,2.2,08,18,73,111,35,19,33,057,27,22,57,173,37,27,,,*40
$GPRMC,134556.000,A,5205.1823,N,00206.5413,W,15.03,86.42,050612,,,A*7E
$GPVTG,86.42,T,,,15.03,N,27.84,K,A*46
$GPGGA,134557.000,5205.1827,N,00206.5345,W,1,05,02.4,690.1,M,45.0,M,,*7E
$GPRMC,134557.000,A,5205.1827,N,00206.5345,W,15.03,86.42,050612,,,A*7F
$GPVTG,86.42,T,,,15.03,N,27.84,K,A*46
$GPGGA,134558.000,5205.1831,N,00206.5278,W,1,05,02.4,693.7,M,45.0,M,,*7C
$GPGSA,A,3,03,07,18,19,22,,,,,,,,3.3,2.4,2.3*30
$GPRMC,134558.000,A,5205.1831,N,00206.5278,W,15.03,86.42,050612,,,A*78
$GPVTG,86.42,T,,,15.03,N,27.84,K,A*46
$GPGGA,134559.000,5205.1836,N,00206.5210,W,1,05,02.4,697.2,M,45.0,M,,*75
$GPGSV,2,1,08,03,89,276,30,07,63,181,22,11,,,,12,,,*79
$GPGSV,2.2,08,18,73,111,35,19,33,057,27,22,57,173,37,27,,,*40
$GPRMC,134559.000,A,5205.1836,N,00206.5210,W,15.03,86.42,050612,,,A*70
$GPVTG,86.42,T,,,15.03,N,27.84,K,A*46
$GPGGA,134600.000,5205.1840,N,00206.5143,W,1,05,02.4,700.7,M,45.0,M,,*74
$GPRMC,134600.000,A,5205.1840,N,00206.5143,W,15.03,86.42,050612,,,A*7B
$GPVTG,86.42,T,,,15.03,N,27.84,K,A*46
$GPGGA,134601.000,5205.1844,N,00206.5075,W,1,05,02.4,704.2,M,45.0,M,,*74
$GPGSA,A,3,03,07,18,19,22,,,,,,,,3.3,2.4,2.3*30
$GPRMC,134601.000,A,5205.1844,N,00206.5075,W,15.03,86.42,050612,,,A*7A
$GPVTG,86.42,T,,,15.03,N,27.84,K,A*46
$GPGGA,134602.000,5205.1848,N,00206.5008,W,1,05,02.4,707.7,M,45.0,M,,*77
$GPGSV,2,1,08,03,89,276,30,07,63,181,22,11,,,,12,,,*79
$GPGSV,2.2,08,18,73,111,35,19,33,057,27,22,57,173,37,27,,,*40
$GPRMC,134602.000,A,5205.1848,N,00206.5008,W,15.03,86.42,050612,,,A*7F
$GPVTG,86.42,T,,,15.03,N,27.84,K,A*46
$GPGGA,134603.000,5205.1853,N,00206.4940,W,1,05,02.4,711.3,M,45.0,M,,*7B
$GPRMC,134603.000,A,5205.1853,N,00206.4940,W,15.03,86.42,050612,,,A*70
$GPVTG,86.42,T,,,15.03,N,27.84,K,A*46
$GPGGA,134604.000,5205.1857,N,00206.4872,W,1,05,02.4,714.8,M,45.0,M,,*76
$GPGSA,A,3,03,07,18,19,22,,,,,,,,3.3,2.4,2.3*30
$GPRMC,134604.000,A,5205.1857,N,00206.4872,W,15.03,86.42,050612,,,A*73
$GPVTG,86.42,T,,,15.03,N,27.84,K,A*46
$GPGGA,134605.000,5205.1861,N,00206.4805,W,1,05,02.4,718.3,M,45.0,M,,*75
$GPGSV,2,1,08,03,89,276,30,07,63,181,22,11,,,,12,,,*79
$GPGSV,2.2,08,18,73,111,35,19,33,057,27,22,57,173,37,27,,,*40
$GPRMC,134605.000,A,5205.1861,N,00206.4805,W,15.03,86.42,050612,,,A*77
$GPVTG,86.42,T,,,15.03,N,27.84,K,A*46
$GPGGA,134606.000,5205.1865,N,00206.4737,W,1,05,02.4,721.8,M,45.0,M,,*7D
$GPRMC,134606.000,A,5205.1865,N,00206.4737,W,15.03,86.42,050612,,,A*7E
$GPVTG,86.42,T,,,15.03,N,27.84,K,A*46
$GPGGA,134607.000,5205.1869,N,00206.4670,W,1,05,02.4,725.4,M,45.0,M,,*7A
$GPGSA,A,3,03,07,18,19,22,,,,,,,,3.3,2.4,2.3*30
$GPRMC,134607.000,A,5205.1869,N,00206.4670,W,15.03,86.42,050612,,,A*71
$GPVTG,86.42,T,,,15.03,N,27.84,K,A*46
$GPGGA,134608.000,5205.1874,N,00206.4602,W,1,05,02.4,728.9,M,45.0,M,,*7C
$GPGSV,2,1,08,03,89,276,30,07,63,181,22,11,,,,12,,,*79
$GPGSV,2.2,08,18,73,111,35,19,33,057,27,22,57,173,37,27,,,*40
$GPRMC,134608.000,A,5205.1874,N,00206.4602,W,15.03,86.42,050612,,,A*77
$GPVTG,86.42,T,,,15.03,N,27.84,K,A*46
$GPGGA,134609.000,5205.1878,N,00206.4535,W,1,05,02.4,732.4,M,45.0,M,,*70
$GPRMC,134609.000,A,5205.1878,N,00206.4535,W,15.03,86.42,050612,,,A*7D
$GPVTG,86.42,T,,,15.03,N,27.84,K,A*46
$GPGGA,134610.000,5205.1882,N,00206.4467,W,1,05,02.4,735.9,M,45.0,M,,*71
$GPGSA,A,3,03,07,18,19,22,,,,,,,,3.3,2.4,2.3*30
$GPRMC,134610.000,A,5205.1882,N,00206.4467,W,15.03,86.42,050612,,,A*76
$GPVTG,86.42,T,,,15.03,N,27.84,K,A*46
$GPGGA,134611.000,5205.1886,N,00206.4399,W,1,05,02.4,739.4,M,45.0,M,,*73
$GPGSV,2,1,08,03,89,276,30,07,63,181,22,11,,,,12,,,*79
$GPGSV,2.2,08,18,73,111,35,19,33,057,27,22,57,173,37,27,,,*40
$GPRMC,134611.000,A,5205.1886,N,00206.4399,W,15.03,86.42,050612,,,A*75
$GPVTG,86.42,T,,,15.03,N,27.84,K,A*46
$GPGGA,134612.000,5205.1891,N,00206.4332,W,1,05,02.4,743.0,M,45.0,M,,*7E
$GPRMC,134612.000,A,5205.1891,N,00206.4332,W,15.03,86.42,050612,,,A*71
$GPVTG,86.42,T,,,15.03,N,27.84,K,A*46
$GPGGA,134613.000,5205.1895,N,00206.4264,W,1,05,02.4,746.5,M,45.0,M,,*79
$GPGSA,A,3,03,07,18,19,22,,,,,,,,3.3,2.4,2.3*30
$GPRMC,134613.000,A,5205.1895,N,00206.4264,W,15.03,86.42,050612,,,A*76
$GPVTG,86.42,T,,,15.03,N,27.84,K,A*46
$GPGGA,134614.000,5205.1899,N,00206.4197,W,1,05,02.4,750.0,M,45.0,M,,*7F
$GPGSV,2,1,08,03,89,276,30,07,63,181,22,11,,,,12,,,*79
$GPGSV,2.2,08,18,73,111,35,19,33,057,27,22,57,173,37,27,,,*40
$GPRMC,134614.000,A,5205.1899,N,00206.4197,W,20.56,91.03,050612,,,A*77
$GPVTG,91.03,T,,,20.56,N,38.08,K,A*49
$GPGGA,134615.000,5205.1897,N,00206.4104,W,1,05,02.4,753.5,M,45.0,M,,*7C
$GPRMC,134615.000,A,5205.1897,N,00206.4104,W,20.56,91.03,050612,,,A*72
$GPVTG,91.03,T,,,20.56,N,38.08,K,A*49
$GPGGA,134616.000,5205.1896,N,00206.4011,W,1,05,02.4,757.0,M,45.0,M,,*7A
$GPGSA,A,3,03,07,18,19,22,,,,,,,,3.3,2.4,2.3*30
$GPRMC,134616.000,A,5205.1896,N,00206.4011,W,20.56,91.03,050612,,,A*75
$GPVTG,91.03,T,,,20.56,N,38.08,K,A*49
$GPGGA,134617.000,5205.1894,N,00206.3918,W,1,05,02.4,760.6,M,45.0,M,,*7C
$GPGSV,2,1,08,03,89,276,30,07,63,181,22,11,,,,12,,,*79
$GPGSV,2.2,08,18,73,111,35,19,33,057,27,22,57,173,37,27,,,*40
$GPRMC,134617.000,A,5205.1894,N,00206.3918,W,20.56,91.03,050612,,,A*71
$GPVTG,91.03,T,,,20.56,N,38.08,K,A*49
$GPGGA,134618.000,5205.1892,N,00206.3825,W,1,05,02.4,764.1,M,45.0,M,,*79
$GPRMC,134618.000,A,5205.1892,N,00206.3825,W,20.56,91.03,050612,,,A*77
$GPVTG,91.03,T,,,20.56,N,38.08,K,A*49
$GPGGA,134619.000,5205.1891,N,00206.3733,W,1,05,02.4,767.6,M,45.0,M,,*77
$GPGSA,A,3,03,07,18,19,22,,,,,,,,3.3,2.4,2.3*30
$GPRMC,134619.000,A,5205.1891,N,00206.3733,W,20.56,91.03,050612,,,A*7D
$GPVTG,91.03,T,,,20.56,N,38.08,K,A*49
$GPGGA,134620.000,5205.1889,N,00206.3640,W,1,05,02.4,771.1,M,45.0,M,,*71
$GPGSV,2,1,08,03,89,276,30,07,63,181,22,11,,,,12,,,*79
$GPGSV,2.2,08,18,73,111,35,19,33,057,27,22,57,173,37,27,,,*40
$GPRMC,134620.000,A,5205.1889,N,00206.3640,W,20.56,91.03,050612,,,A*7B
$GPVTG,91.03,T,,,20.56,N,38.08,K,A*49
$GPGGA,134621.000,5205.1887,N,00206.3547,W,1,05,02.4,774.6,M,45.0,M,,*78
$GPRMC,134621.000,A,5205.1887,N,00206.3547,W,20.56,91.03,050612,,,A*70
$GPVTG,91.03,T,,,20.56,N,38.08,K,A*49
$GPGGA,134622.000,5205.1886,N,00206.3454,W,1,05,02.4,778.2,M,45.0,M,,*71
$GPGSA,A,3,03,07,18,19,22,,,,,,,,3.3,2.4,2.3*30
$GPRMC,134622.000,A,5205.1886,N,00206.3454,W,20.56,91.03,050612,,,A*71
$GPVTG,91.03,T,,,20.56,N,38.08,K,A*49
$GPGGA,134623.000,5205.1884,N,00206.3361,W,1,05,02.4,781.7,M,45.0,M,,*70
$GPGSV,2,1,08,03,89,276,30,07,63,181,22,11,,,,12,,,*79
$GPGSV,2.2,08,18,73,111,35,19,33,057,27,22,57,173,37,27,,,*40
$GPRMC,134623.000,A,5205.1884,N,00206.3361,W,20.56,91.03,050612,,,A*73
$GPVTG,91.03,T,,,20.56,N,38.08,K,A*49
$GPGGA,134624.000,5205.1882,N,00206.3268,W,1,05,02.4,785.2,M,45.0,M,,*78
$GPRMC,134624.000,A,5205.1882,N,00206.3268,W,20.56,91.03,050612,,,A*7A
$GPVTG,91.03,T,,,20.56,N,38.08,K,A*49
$GPGGA,134625.000,5205.1881,N,00206.3176,W,1,05,02.4,788.7,M,45.0,M,,*7E
$GPGSA,A,3,03,07,18,19,22,,,,,,,,3.3,2.4,2.3*30
$GPRMC,134625.000,A,5205.1881,N,00206.3176,W,20.56,91.03,050612,,,A*74
$GPVTG,91.03,T,,,20.56,N,38.08,K,A*49
$GPGGA,134626.000,5205.1879,N,00206.3083,W,1,05,02.4,792.3,M,45.0,M,,*7E
$GPGSV,2,1,08,03,89,276,30,07,63,181,22,11,,,,12,,,*79
$GPGSV,2.2,08,18,73,111,35,19,33,057,27,22,57,173,37,27,,,*40
$GPRMC,134626.000,A,5205.1879,N,00206.3083,W,20.56,91.03,050612,,,A*7B
$GPVTG,91.03,T,,,20.56,N,38.08,K,A*49
$GPGGA,134627.000,5205.1877,N,00206.2990,W,1,05,02.4,795.8,M,45.0,M,,*77
$GPRMC,134627.000,A,5205.1877,N,00206.2990,W,20.56,91.03,050612,,,A*7E
$GPVTG,91.03,T,,,20.56,N,38.08,K,A*49
$GPGGA,134628.000,5205.1875,N,00206.2897,W,1,05,02.4,799.3,M,45.0,M,,*7B
$GPGSA,A,3,03,07,18,19,22,,,,,,,,3.3,2.4,2.3*30
$GPRMC,134628.000,A,5205.1875,N,00206.2897,W,20.56,91.03,050612,,,A*75
$GPVTG,91.03,T,,,20.56,N,38.08,K,A*49
$GPGGA,134629.000,5205.1874,N,00206.2804,W,1,05,02.4,802.8,M,45.0,M,,*77
$GPGSV,2,1,08,03,89,276,30,07,63,181,22,11,,,,12,,,*79
$GPGSV,2.2,08,18,73,111,35,19,33,057,27,22,57,173,37,27,,,*40
$GPRMC,134629.000,A,5205.1874,N,00206.2804,W,20.56,91.03,050612,,,A*7F
$GPVTG,91.03,T,,,20.56,N,38.08,K,A*49
$GPGGA,134630.000,5205.1872,N,00206.2711,W,1,05,02.4,806.3,M,45.0,M,,*7D
$GPRMC,134630.000,A,5205.1872,N,00206.2711,W,20.56,91.03,050612,,,A*7A
$GPVTG,91.03,T,,,20.56,N,38.08,K,A*49
$GPGGA,134631.000,5205.1870,N,00206.2618,W,1,05,02.4,809.9,M,45.0,M,,*73
$GPGSA,A,3,03,07,18,19,22,,,,,,,,3.3,2.4,2.3*30
$GPRMC,134631.000,A,5205.1870,N,00206.2618,W,20.56,91.03,050612,,,A*71
$GPVTG,91.03,T,,,20.56,N,38.08,K,A*49
$GPGGA,134632.000,5205.1869,N,00206.2526,W,1,05,02.4,813.4,M,45.0,M,,*70
$GPGSV,2,1,08,03,89,276,30,07,63,181,22,11,,,,12,,,*79
$GPGSV,2.2,08,18,73,111,35,19,33,057,27,22,57,173,37,27,,,*40
$GPRMC,134632.000,A,5205.1869,N,00206.2526,W,20.56,91.03,050612,,,A*74
$GPVTG,91.03,T,,,20.56,N,38.08,K,A*49
$GPGGA,134633.000,5205.1867,N,00206.2433,W,1,05,02.4,816.9,M,45.0,M,,*72
$GPRMC,134633.000,A,5205.1867,N,00206.2433,W,20.56,91.03,050612,,,A*7E
$GPVTG,91.03,T,,,20.56,N,38.08,K,A*49
$GPGGA,134634.000,5205.1865,N,00206.2340,W,1,05,02.4,820.4,M,45.0,M,,*7C
$GPGSA,A,3,03,07,18,19,22,,,,,,,,3.3,2.4,2.3*30
$GPRMC,134634.000,A,5205.1865,N,00206.2340,W,20.56,91.03,050612,,,A*78
$GPVTG,91.03,T,,,20.56,N,38.08,K,A*49
$GPGGA,134635.000,5205.1864,N,00206.2247,W,1,05,02.4,823.9,M,45.0,M,,*74
$GPGSV,2,1,08,03,89,276,30,07,63,181,22,11,,,,12,,,*79
$GPGSV,2.2,08,18,73,111,35,19,33,057,27,22,57,173,37,27,,,*40
$GPRMC,134635.000,A,5205.1864,N,00206.2247,W,20.56,91.03,050612,,,A*7E
$GPVTG,91.03,T,,,20.56,N,38.08,K,A*49
$GPGGA,134636.000,5205.1862,N,00206.2154,W,1,05,02.4,827.5,M,45.0,M,,*78
$GPRMC,134636.000,A,5205.1862,N,00206.2154,W,20.56,91.03,050612,,,A*7A
$GPVTG,91.03,T,,,20.56,N,38.08,K,A*49
$GPGGA,134637.000,5205.1860,N,00206.2061,W,1,05,02.4,831.0,M,45.0,M,,*7E
$GPGSA,A,3,03,07,18,19,22,,,,,,,,3.3,2.4,2.3*30
$GPRMC,134637.000,A,5205.1860,N,00206.2061,W,20.56,91.03,050612,,,A*7E
$GPVTG,91.03,T,,,20.56,N,38.08,K,A*49
$GPGGA,134638.000,5205.1859,N,00206.1969,W,1,05,02.4,834.5,M,45.0,M,,*79
$GPGSV,2,1,08,03,89,276,30,07,63,181,22,11,,,,12,,,*79
$GPGSV,2.2,08,18,73,111,35,19,33,057,27,22,57,173,37,27,,,*40
$GPRMC,134638.000,A,5205.1859,N,00206.1969,W,20.56,91.03,050612,,,A*79
$GPVTG,91.03,T,,,20.56,N,38.08,K,A*49
$GPGGA,134639.000,5205.1857,N,00206.1876,W,1,05,02.4,838.0,M,45.0,M,,*70
$GPRMC,134639.000,A,5205.1857,N,00206.1876,W,20.56,91.03,050612,,,A*79
$GPVTG,91.03,T,,,20.56,N,38.08,K,A*49
$GPGGA,134640.000,5205.1855,N,00206.1783,W,1,05,02.4,841.5,M,45.0,M,,*72
$GPGSA,A,3,03,07,18,19,22,,,,,,,,3.3,2.4,2.3*30
$GPRMC,134640.000,A,5205.1855,N,00206.1783,W,20.56,91.03,050612,,,A*70
$GPVTG,91.03,T,,,20.56,N,38.08,K,A*49
$GPGGA,134641.000,5205.1854,N,00206.1690,W,1,05,02.4,845.1,M,45.0,M,,*71
$GPGSV,2,1,08,03,89,276,30,07,63,181,22,11,,,,12,,,*79
$GPGSV,2.2,08,18,73,111,35,19,33,057,27,22,57,173,37,27,,,*40
$GPRMC,134641.000,A,5205.1854,N,00206.1690,W,20.56,91.03,050612,,,A*73
$GPVTG,91.03,T,,,20.56,N,38.08,K,A*49
$GPGGA,134642.000,5205.1852,N,00206.1597,W,1,05,02.4,848.6,M,45.0,M,,*7A
$GPRMC,134642.000,A,5205.1852,N,00206.1597,W,20.56,91.03,050612,,,A*72
$GPVTG,91.03,T,,,20.56,N,38.08,K,A*49
$GPGGA,134643.000,5205.1850,N,00206.1504,W,1,05,02.4,852.1,M,45.0,M,,*7F
$GPGSA,A,3,03,07,18,19,22,,,,,,,,3.3,2.4,2.3*30
$GPRMC,134643.000,A,5205.1850,N,00206.1504,W,20.56,91.03,050612,,,A*7B
$GPVTG,91.03,T,,,20.56,N,38.08,K,A*49
$GPGGA,134644.000,5205.1849,N,00206.1412,W,1,05,02.4,855.6,M,45.0,M,,*76
$GPGSV,2,1,08,03,89,276,30,07,63,181,22,11,,,,12,,,*79
$GPGSV,2.2,08,18,73,111,35,19,33,057,27,22,57,173,37,27,,,*40
$GPRMC,134644.000,A,5205.1849,N,00206.1412,W,20.56,91.03,050612,,,A*72
$GPVTG,91.03,T,,,20.56,N,38.08,K,A*49
$GPGGA,134645.000,5205.1847,N,00206.1319,W,1,05,02.4,859.2,M,45.0,M,,*7D
$GPRMC,134645.000,A,5205.1847,N,00206.1319,W,20.56,91.03,050612,,,A*71
$GPVTG,91.03,T,,,20.56,N,38.08,K,A*49
$GPGGA,134646.000,5205.1845,N,00206.1226,W,1,05,02.4,862.7,M,45.0,M,,*7C
$GPGSA,A,3,03,07,18,19,22,,,,,,,,3.3,2.4,2.3*30
$GPRMC,134646.000,A,5205.1845,N,00206.1226,W,20.56,91.03,050612,,,A*7D
$GPVTG,91.03,T,,,20.56,N,38.08,K,A*49
$GPGGA,134647.000,5205.1844,N,00206.1133,W,1,05,02.4,866.2,M,45.0,M,,*7A
$GPGSV,2,1,08,03,89,276,30,07,63,181,22,11,,,,12,,,*79
$GPGSV,2.2,08,18,73,111,35,19,33,057,27,22,57,173,37,27,,,*40
$GPRMC,134647.000,A,5205.1844,N,00206.1133,W,20.56,91.03,050612,,,A*7A
$GPVTG,91.03,T,,,20.56,N,38.08,K,A*49
$GPGGA,134648.000,5205.1842,N,00206.1040,W,1,05,02.4,869.7,M,45.0,M,,*7C
$GPRMC,134648.000,A,5205.1842,N,00206.1040,W,20.56,91.03,050612,,,A*76
$GPVTG,91.03,T,,,20.56,N,38.08,K,A*49
$GPGGA,134649.000,5205.1840,N,00206.0947,W,1,05,02.4,873.2,M,45.0,M,,*7E
$GPGSA,A,3,03,07,18,19,22,,,,,,,,3.3,2.4,2.3*30
$GPRMC,134649.000,A,5205.1840,N,00206.0947,W,20.56,91.03,050612,,,A*7A
$GPVTG,91.03,T,,,20.56,N,38.08,K,A*49
$GPGGA,134650.000,5205.1839,N,00206.0854,W,1,05,02.4,876.8,M,45.0,M,,*74
$GPGSV,2,1,08,03,89,276,30,07,63,181,22,11,,,,12,,,*79
$GPGSV,2.2,08,18,73,111,35,19,33,057,27,22,57,173,37,27,,,*40
$GPRMC,134650.000,A,5205.1839,N,00206.0854,W,20.56,91.03,050612,,,A*7F
$GPVTG,91.03,T,,,20.56,N,38.08,K,A*49
$GPGGA,134651.000,5205.1837,N,00206.0762,W,1,05,02.4,880.3,M,45.0,M,,*73
$GPRMC,134651.000,A,5205.1837,N,00206.0762,W,20.56,91.03,050612,,,A*7A
$GPVTG,91.03,T,,,20.56,N,38.08,K,A*49
$GPGGA,134652.000,5205.1835,N,00206.0669,W,1,05,02.4,883.8,M,45.0,M,,*70
$GPGSA,A,3,03,07,18,19,22,,,,,,,,3.3,2.4,2.3*30
$GPRMC,134652.000,A,5205.1835,N,00206.0669,W,20.56,91.03,050612,,,A*71
$GPVTG,91.03,T,,,20.56,N,38.08,K,A*49
$GPGGA,134653.000,5205.1834,N,00206.0576,W,1,05,02.4,887.3,M,45.0,M,,*72
$GPGSV,2,1,08,03,89,276,30,07,63,181,22,11,,,,12,,,*79
$GPGSV,2.2,08,18,73,111,35,19,33,057,27,22,57,173,37,27,,,*40
$GPRMC,134653.000,A,5205.1834,N,00206.0576,W,20.56,91.03,050612,,,A*7C
$GPVTG,91.03,T,,,20.56,N,38.08,K,A*49
$GPGGA,134654.000,5205.1832,N,00206.0483,W,1,05,02.4,890.8,M,45.0,M,,*75
$GPRMC,134654.000,A,5205.1832,N,00206.0483,W,20.56,91.03,050612,,,A*76
$GPVTG,91.03,T,,,20.56,N,38.08,K,A*49
$GPGGA,134655.000,5205.1830,N,00206.0390,W,1,05,02.4,894.4,M,45.0,M,,*7B
$GPGSA,A,3,03,07,18,19,22,,,,,,,,3.3,2.4,2.3*30
$GPRMC,134655.000,A,5205.1830,N,00206.0390,W,20.56,91.03,050612,,,A*70
$GPVTG,91.03,T,,,20.56,N,38.08,K,A*49
$GPGGA,134656.000,5205.1829,N,00206.0297,W,1,05,02.4,897.9,M,45.0,M,,*78
$GPGSV,2,1,08,03,89,276,30,07,63,181,22,11,,,,12,,,*79
$GPGSV,2.2,08,18,73,111,35,19,33,057,27,22,57,173,37,27,,,*40
$GPRMC,134656.000,A,5205.1829,N,00206.0297,W,20.56,91.03,050612,,,A*7D
$GPVTG,91.03,T,,,20.56,N,38.08,K,A*49
$GPGGA,134657.000,5205.1827,N,00206.0205,W,1,05,02.4,901.4,M,45.0,M,,*7F
$GPRMC,134657.000,A,5205.1827,N,00206.0205,W,20.56,91.03,050612,,,A*79
$GPVTG,91.03,T,,,20.56,N,38.08,K,A*49
$GPGGA,134658.000,5205.1825,N,00206.0112,W,1,05,02.4,904.9,M,45.0,M,,*7F
$GPGSA,A,3,03,07,18,19,22,,,,,,,,3.3,2.4,2.3*30
$GPRMC,134658.000,A,5205.1825,N,00206.0112,W,20.56,91.03,050612,,,A*71
$GPVTG,91.03,T,,,20.56,N,38.08,K,A*49
$GPGGA,134659.000,5205.1824,N,00206.0019,W,1,05,02.4,908.5,M,45.0,M,,*75
$GPGSV,2,1,08,03,89,276,30,07,63,181,22,11,,,,12,,,*79
$GPGSV,2.2,08,18,73,111,35,19,33,057,27,22,57,173,37,27,,,*40
$GPRMC,134659.000,A,5205.1824,N,00206.0019,W,20.56,91.03,050612,,,A*7B
$GPVTG,91.03,T,,,20.56,N,38.08,K,A*49
$GPGGA,134700.000,5205.1822,N,00205.9926,W,1,05,02.4,912.0,M,45.0,M,,*7F
$GPRMC,134700.000,A,5205.1822,N,00205.9926,W,20.56,91.03,050612,,,A*7F
$GPVTG,91.03,T,,,20.56,N,38.08,K,A*49
$GPGGA,134701.000,5205.1820,N,00205.9833,W,1,05,02.4,915.5,M,45.0,M,,*7B
$GPGSA,A,3,03,07,18,19,22,,,,,,,,3.3,2.4,2.3*30
$GPRMC,134701.000,A,5205.1820,N,00205.9833,W,20.56,91.03,050612,,,A*79
$GPVTG,91.03,T,,,20.56,N,38.08,K,A*49
$GPGGA,134702.000,5205.1818,N,00205.9740,W,1,05,02.4,919.0,M,45.0,M,,*71
$GPGSV,2,1,08,03,89,276,30,07,63,181,22,11,,,,12,,,*79
$GPGSV,2.2,08,18,73,111,35,19,33,057,27,22,57,173,37,27,,,*40
$GPRMC,134702.000,A,5205.1818,N,00205.9740,W,20.56,91.03,050612,,,A*7A
$GPVTG,91.03,T,,,20.56,N,38.08,K,A*49
$GPGGA,134703.000,5205.1817,N,00205.9648,W,1,05,02.4,922.5,M,45.0,M,,*7B
$GPRMC,134703.000,A,5205.1817,N,00205.9648,W,20.56,91.03,050612,,,A*7D
$GPVTG,91.03,T,,,20.56,N,38.08,K,A*49
$GPGGA,134704.000,5205.1815,N,00205.9555,W,1,05,02.4,926.1,M,45.0,M,,*71
$GPGSA,A,3,03,07,18,19,22,,,,,,,,3.3,2.4,2.3*30
$GPRMC,134704.000,A,5205.1815,N,00205.9555,W,20.56,91.03,050612,,,A*77
$GPVTG,91.03,T,,,20.56,N,38.08,K,A*49
$GPGGA,134705.000,5205.1813,N,00205.9462,W,1,05,02.4,929.6,M,45.0,M,,*7B
$GPGSV,2,1,08,03,89,276,30,07,63,181,22,11,,,,12,,,*79
$GPGSV,2.2,08,18,73,111,35,19,33,057,27,22,57,173,37,27,,,*40
$GPRMC,134705.000,A,5205.1813,N,00205.9462,W,20.56,91.03,050612,,,A*75
$GPVTG,91.03,T,,,20.56,N,38.08,K,A*49
$GPGGA,134706.000,5205.1812,N,00205.9369,W,1,05,02.4,933.1,M,45.0,M,,*79
$GPRMC,134706.000,A,5205.1812,N,00205.9369,W,20.56,91.03,050612,,,A*7B
$GPVTG,91.03,T,,,20.56,N,38.08,K,A*49
$GPGGA,134707.000,5205.1810,N,00205.9276,W,1,05,02.4,936.6,M,45.0,M,,*77
$GPGSA,A,3,03,07,18,19,22,,,,,,,,3.3,2.4,2.3*30
$GPRMC,134707.000,A,5205.1810,N,00205.9276,W,20.56,91.03,050612,,,A*77
$GPVTG,91.03,T,,,20.56,N,38.08,K,A*49
$GPGGA,134708.000,5205.1808,N,00205.9183,W,1,05,02.4,940.1,M,45.0,M,,*7E
$GPGSV,2,1,08,03,89,276,30,07,63,181,22,11,,,,12,,,*79
$GPGSV,2.2,08,18,73,111,35,19,33,057,27,22,57,173,37,27,,,*40
$GPRMC,134708.000,A,5205.1808,N,00205.9183,W,20.56,91.03,050612,,,A*78
$GPVTG,91.03,T,,,20.56,N,38.08,K,A*49
$GPGGA,134709.000,5205.1807,N,00205.9090,W,1,05,02.4,943.7,M,45.0,M,,*76
$GPRMC,134709.000,A,5205.1807,N,00205.9090,W,20.56,91.03,050612,,,A*75
$GPVTG,91.03,T,,,20.56,N,38.08,K,A*49
$GPGGA,134710.000,5205.1805,N,00205.8998,W,1,05,02.4,947.2,M,45.0,M,,*7D
$GPGSA,A,3,03,07,18,19,22,,,,,,,,3.3,2.4,2.3*30
$GPRMC,134710.000,A,5205.1805,N,00205.8998,W,20.56,91.03,050612,,,A*7F
$GPVTG,91.03,T,,,20.56,N,38.08,K,A*49
$GPGGA,134711.000,5205.1803,N,00205.8905,W,1,05,02.4,950.7,M,45.0,M,,*7D
$GPGSV,2,1,08,03,89,276,30,07,63,181,22,11,,,,12,,,*79
$GPGSV,2.2,08,18,73,111,35,19,33,057,27,22,57,173,37,27,,,*40
$GPRMC,134711.000,A,5205.1803,N,00205.8905,W,20.56,91.03,050612,,,A*7C
$GPVTG,91.03,T,,,20.56,N,38.08,K,A*49
$GPGGA,134712.000,5205.1802,N,00205.8812,W,1,05,02.4,954.2,M,45.0,M,,*79
$GPRMC,134712.000,A,5205.1802,N,00205.8812,W,20.56,91.03,050612,,,A*79
$GPVTG,91.03,T,,,20.56,N,38.08,K,A*49
$GPGGA,134713.000,5205.1800,N,00205.8719,W,1,05,02.4,957.7,M,45.0,M,,*78
$GPGSA,A,3,03,07,18,19,22,,,,,,,,3.3,2.4,2.3*30
$GPRMC,134713.000,A,5205.1800,N,00205.8719,W,20.56,91.03,050612,,,A*7E
$GPVTG,91.03,T,,,20.56,N,38.08,K,A*49
$GPGGA,134714.000,5205.1798,N,00205.8626,W,1,05,02.4,961.3,M,45.0,M,,*7D
$GPGSV,2,1,08,03,89,276,30,07,63,181,22,11,,,,12,,,*79
$GPGSV,2.2,08,18,73,111,35,19,33,057,27,22,57,173,37,27,,,*40
$GPRMC,134714.000,A,5205.1798,N,00205.8626,W,20.56,91.03,050612,,,A*7A
$GPVTG,91.03,T,,,20.56,N,38.08,K,A*49
$GPGGA,134715.000,5205.1797,N,00205.8533,W,1,05,02.4,964.8,M,45.0,M,,*7A
$GPRMC,134715.000,A,5205.1797,N,00205.8533,W,20.56,91.03,050612,,,A*73
$GPVTG,91.03,T,,,20.56,N,38.08,K,A*49
$GPGGA,134716.000,5205.1795,N,00205.8441,W,1,05,02.4,968.3,M,45.0,M,,*78
$GPGSA,A,3,03,07,18,19,22,,,,,,,,3.3,2.4,2.3*30
$GPRMC,134716.000,A,5205.1795,N,00205.8441,W,20.56,91.03,050612,,,A*76
$GPVTG,91.03,T,,,20.56,N,38.08,K,A*49
$GPGGA,134717.000,5205.1793,N,00205.8348,W,1,05,02.4,971.8,M,45.0,M,,*72
$GPGSV,2,1,08,03,89,276,30,07,63,181,22,11,,,,12,,,*79
$GPGSV,2.2,08,18,73,111,35,19,33,057,27,22,57,173,37,27,,,*40
$GPRMC,134717.000,A,5205.1793,N,00205.8348,W,20.56,91.03,050612,,,A*7F
$GPVTG,91.03,T,,,20.56,N,38.08,K,A*49
$GPGGA,134718.000,5205.1792,N,00205.8255,W,1,05,02.4,975.4,M,45.0,M,,*79
$GPRMC,134718.000,A,5205.1792,N,00205.8255,W,20.56,91.03,050612,,,A*7C
$GPVTG,91.03,T,,,20.56,N,38.08,K,A*49
$GPGGA,134719.000,5205.1790,N,00205.8162,W,1,05,02.4,978.9,M,45.0,M,,*7D
$GPGSA,A,3,03,07,18,19,22,,,,,,,,3.3,2.4,2.3*30
$GPRMC,134719.000,A,5205.1790,N,00205.8162,W,20.56,91.03,050612,,,A*78
$GPVTG,91.03,T,,,20.56,N,38.08,K,A*49
$GPGGA,134720.000,5205.1788,N,00205.8069,W,1,05,02.4,982.4,M,45.0,M,,*7C
$GPGSV,2,1,08,03,89,276,30,07,63,181,22,11,,,,12,,,*79
$GPGSV,2.2,08,18,73,111,35,19,33,057,27,22,57,173,37,27,,,*40
$GPRMC,134720.000,A,5205.1788,N,00205.8069,W,20.56,91.03,050612,,,A*71
$GPVTG,91.03,T,,,20.56,N,38.08,K,A*49
$GPGGA,134721.000,5205.1787,N,00205.7976,W,1,05,02.4,985.9,M,45.0,M,,*70
$GPRMC,134721.000,A,5205.1787,N,00205.7976,W,20.56,91.03,050612,,,A*77
$GPVTG,91.03,T,,,20.56,N,38.08,K,A*49
$GPGGA,134722.000,5205.1785,N,00205.7884,W,1,05,02.4,989.4,M,45.0,M,,*7C
$GPGSA,A,3,03,07,18,19,22,,,,,,,,3.3,2.4,2.3*30
$GPRMC,134722.000,A,5205.1785,N,00205.7884,W,20.56,91.03,050612,,,A*7A
$GPVTG,91.03,T,,,20.56,N,38.08,K,A*49
$GPGGA,134723.000,5205.1783,N,00205.7791,W,1,05,02.4,993.0,M,45.0,M,,*7F
$GPGSV,2,1,08,03,89,276,30,07,63,181,22,11,,,,12,,,*79
$GPGSV,2.2,08,18,73,111,35,19,33,057,27,22,57,173,37,27,,,*40
$GPRMC,134723.000,A,5205.1783,N,00205.7791,W,20.56,91.03,050612,,,A*76
$GPVTG,91.03,T,,,20.56,N,38.08,K,A*49
$GPGGA,134724.000,5205.1782,N,00205.7698,W,1,05,02.4,996.5,M,45.0,M,,*71
$GPRMC,134724.000,A,5205.1782,N,00205.7698,W,20.56,91.03,050612,,,A*78
$GPVTG,91.03,T,,,20.56,N,38.08,K,A*49
$GPGGA,134725.000,5205.1780,N,00205.7605,W,1,05,02.4,1000.0,M,45.0,M,,*44
$GPGSA,A,3,03,07,18,19,22,,,,,,,,3.3,2.4,2.3*30
$GPRMC,134725.000,A,5205.1780,N,00205.7605,W,18.81,93.42,050612,,,A*79
$GPVTG,93.42,T,,,18.81,N,34.84,K,A*47
$GPGGA,134726.000,5205.1775,N,00205.7520,W,1,05,02.4,1003.5,M,45.0,M,,*4F
$GPGSV,2,1,08,03,89,276,30,07,63,181,22,11,,,,12,,,*79
$GPGSV,2.2,08,18,73,111,35,19,33,057,27,22,57,173,37,27,,,*40
$GPRMC,134726.000,A,5205.1775,N,00205.7520,W,18.81,93.42,050612,,,A*74
$GPVTG,93.42,T,,,18.81,N,34.84,K,A*47
$GPGGA,134727.000,5205.1770,N,00205.7436,W,1,05,02.4,1007.0,M,45.0,M,,*4C
$GPRMC,134727.000,A,5205.1770,N,00205.7436,W,18.81,93.42,050612,,,A*76
$GPVTG,93.42,T,,,18.81,N,34.84,K,A*47
$GPGGA,134728.000,5205.1765,N,00205.7351,W,1,05,02.4,1010.6,M,45.0,M,,*41
$GPGSA,A,3,03,07,18,19,22,,,,,,,,3.3,2.4,2.3*30
$GPRMC,134728.000,A,5205.1765,N,00205.7351,W,18.81,93.42,050612,,,A*7B
$GPVTG,93.42,T,,,18.81,N,34.84,K,A*47
$GPGGA,134729.000,5205.1760,N,00205.7267,W,1,05,02.4,1014.1,M,45.0,M,,*42
$GPGSV,2,1,08,03,89,276,30,07,63,181,22,11,,,,12,,,*79
$GPGSV,2.2,08,18,73,111,35,19,33,057,27,22,57,173,37,27,,,*40
$GPRMC,134729.000,A,5205.1760,N,00205.7267,W,18.81,93.42,050612,,,A*7B
$GPVTG,93.42,T,,,18.81,N,34.84,K,A*47
$GPGGA,134730.000,5205.1755,N,00205.7182,W,1,05,02.4,1017.6,M,45.0,M,,*40
$GPRMC,134730.000,A,5205.1755,N,00205.7182,W,18.81,93.42,050612,,,A*7D
$GPVTG,93.42,T,,,18.81,N,34.84,K,A*47
$GPGGA,134731.000,5205.1750,N,00205.7097,W,1,05,02.4,1021.1,M,45.0,M,,*43
$GPGSA,A,3,03,07,18,19,22,,,,,,,,3.3,2.4,2.3*30
$GPRMC,134731.000,A,5205.1750,N,00205.7097,W,18.81,93.42,050612,,,A*7C
$GPVTG,93.42,T,,,18.81,N,34.84,K,A*47
$GPGGA,134732.000,5205.1745,N,00205.7013,W,1,05,02.4,1024.6,M,45.0,M,,*4A
$GPGSV,2,1,08,03,89,276,30,07,63,181,22,11,,,,12,,,*79
$GPGSV,2.2,08,18,73,111,35,19,33,057,27,22,57,173,37,27,,,*40
$GPRMC,134732.000,A,5205.1745,N,00205.7013,W,18.81,93.42,050612,,,A*77
$GPVTG,93.42,T,,,18.81,N,34.84,K,A*47
$GPGGA,134733.000,5205.1739,N,00205.6928,W,1,05,02.4,1028.2,M,45.0,M,,*48
$GPRMC,134733.000,A,5205.1739,N,00205.6928,W,18.81,93.42,050612,,,A*7D
$GPVTG,93.42,T,,,18.81,N,34.84,K,A*47
$GPGGA,134734.000,5205.1734,N,00205.6844,W,1,05,02.4,1031.7,M,45.0,M,,*44
$GPGSA,A,3,03,07,18,19,22,,,,,,,,3.3,2.4,2.3*30
$GPRMC,134734.000,A,5205.1734,N,00205.6844,W,18.81,93.42,050612,,,A*7C
$GPVTG,93.42,T,,,18.81,N,34.84,K,A*47
$GPGGA,134735.000,5205.1729,N,00205.6759,W,1,05,02.4,1035.2,M,45.0,M,,*4B
$GPGSV,2,1,08,03,89,276,30,07,63,181,22,11,,,,12,,,*79
$GPGSV,2.2,08,18,73,111,35,19,33,057,27,22,57,173,37,27,,,*40
$GPRMC,134735.000,A,5205.1729,N,00205.6759,W,18.81,93.42,050612,,,A*72
$GPVTG,93.42,T,,,18.81,N,34.84,K,A*47
$GPGGA,134736.000,5205.1724,N,00205.6674,W,1,05,02.4,1038.7,M,45.0,M,,*43
$GPRMC,134736.000,A,5205.1724,N,00205.6674,W,18.81,93.42,050612,,,A*72
$GPVTG,93.42,T,,,18.81,N,34.84,K,A*47
$GPGGA,134737.000,5205.1719,N,00205.6590,W,1,05,02.4,1042.3,M,45.0,M,,*4C
$GPGSA,A,3,03,07,18,19,22,,,,,,,,3.3,2.4,2.3*30
$GPRMC,134737.000,A,5205.1719,N,00205.6590,W,18.81,93.42,050612,,,A*74
$GPVTG,93.42,T,,,18.81,N,34.84,K,A*47
$GPGGA,134738.000,5205.1714,N,00205.6505,W,1,05,02.4,1045.8,M,45.0,M,,*4E
$GPGSV,2,1,08,03,89,276,30,07,63,181,22,11,,,,12,,,*79
$GPGSV,2.2,08,18,73,111,35,19,33,057,27,22,57,173,37,27,,,*40
$GPRMC,134738.000,A,5205.1714,N,00205.6505,W,18.81,93.42,050612,,,A*7A
$GPVTG,93.42,T,,,18.81,N,34.84,K,A*47
$GPGGA,134739.000,5205.1709,N,00205.6421,W,1,05,02.4,1049.3,M,45.0,M,,*43
$GPRMC,134739.000,A,5205.1709,N,00205.6421,W,18.81,93.42,050612,,,A*70
$GPVTG,93.42,T,,,18.81,N,34.84,K,A*47
$GPGGA,134740.000,5205.1704,N,00205.6336,W,1,05,02.4,1052.8,M,45.0,M,,*40
$GPGSA,A,3,03,07,18,19,22,,,,,,,,3.3,2.4,2.3*30
$GPRMC,134740.000,A,5205.1704,N,00205.6336,W,18.81,93.42,050612,,,A*72
$GPVTG,93.42,T,,,18.81,N,34.84,K,A*47
$GPGGA,134741.000,5205.1699,N,00205.6252,W,1,05,02.4,1056.3,M,45.0,M,,*48
$GPGSV,2,1,08,03,89,276,30,07,63,181,22,11,,,,12,,,*79
$GPGSV,2.2,08,18,73,111,35,19,33,057,27,22,57,173,37,27,,,*40
$GPRMC,134741.000,A,5205.1699,N,00205.6252,W,18.81,93.42,050612,,,A*75
$GPVTG,93.42,T,,,18.81,N,34.84,K,A*47
$GPGGA,134742.000,5205.1694,N,00205.6167,W,1,05,02.4,1059.9,M,45.0,M,,*46
$GPRMC,134742.000,A,5205.1694,N,00205.6167,W,18.81,93.42,050612,,,A*7E
$GPVTG,93.42,T,,,18.81,N,34.84,K,A*47
$GPGGA,134743.000,5205.1689,N,00205.6082,W,1,05,02.4,1063.4,M,45.0,M,,*45
$GPGSA,A,3,03,07,18,19,22,,,,,,,,3.3,2.4,2.3*30
$GPRMC,134743.000,A,5205.1689,N,00205.6082,W,18.81,93.42,050612,,,A*79
$GPVTG,93.42,T,,,18.81,N,34.84,K,A*47
$GPGGA,134744.000,5205.1684,N,00205.5998,W,1,05,02.4,1066.9,M,45.0,M,,*46
$GPGSV,2,1,08,03,89,276,30,07,63,181,22,11,,,,12,,,*79
$GPGSV,2.2,08,18,73,111,35,19,33,057,27,22,57,173,37,27,,,*40
$GPRMC,134744.000,A,5205.1684,N,00205.5998,W,18.81,93.42,050612,,,A*72
$GPVTG,93.42,T,,,18.81,N,34.84,K,A*47
$GPGGA,134745.000,5205.1679,N,00205.5913,W,1,05,02.4,1070.4,M,45.0,M,,*4C
$GPRMC,134745.000,A,5205.1679,N,00205.5913,W,18.81,93.42,050612,,,A*72
$GPVTG,93.42,T,,,18.81,N,34.84,K,A*47
$GPGGA,134746.000,5205.1674,N,00205.5829,W,1,05,02.4,1073.9,M,45.0,M,,*44
$GPGSA,A,3,03,07,18,19,22,,,,,,,,3.3,2.4,2.3*30
$GPRMC,134746.000,A,5205.1674,N,00205.5829,W,18.81,93.42,050612,,,A*74
$GPVTG,93.42,T,,,18.81,N,34.84,K,A*47
$GPGGA,134747.000,5205.1669,N,00205.5744,W,1,05,02.4,1077.5,M,45.0,M,,*45
$GPGSV,2,1,08,03,89,276,30,07,63,181,22,11,,,,12,,,*79
$GPGSV,2.2,08,18,73,111,35,19,33,057,27,22,57,173,37,27,,,*40
$GPRMC,134747.000,A,5205.1669,N,00205.5744,W,18.81,93.42,050612,,,A*7D
$GPVTG,93.42,T,,,18.81,N,34.84,K,A*47
$GPGGA,134748.000,5205.1664,N,00205.5659,W,1,05,02.4,1081.0,M,45.0,M,,*46
$GPRMC,134748.000,A,5205.1664,N,00205.5659,W,18.81,93.42,050612,,,A*72
$GPVTG,93.42,T,,,18.81,N,34.84,K,A*47
$GPGGA,134749.000,5205.1658,N,00205.5575,W,1,05,02.4,1084.5,M,45.0,M,,*45
$GPGSA,A,3,03,07,18,19,22,,,,,,,,3.3,2.4,2.3*30
$GPRMC,134749.000,A,5205.1658,N,00205.5575,W,18.81,93.42,050612,,,A*71
$GPVTG,93.42,T,,,18.81,N,34.84,K,A*47
$GPGGA,134750.000,5205.1653,N,00205.5490,W,1,05,02.4,1088.0,M,45.0,M,,*45
$GPGSV,2,1,08,03,89,276,30,07,63,181,22,11,,,,12,,,*79
$GPGSV,2.2,08,18,73,111,35,19,33,057,27,22,57,173,37,27,,,*40
$GPRMC,134750.000,A,5205.1653,N,00205.5490,W,18.81,93.42,050612,,,A*78
$GPVTG,93.42,T,,,18.81,N,34.84,K,A*47
$GPGGA,134751.000,5205.1648,N,00205.5406,W,1,05,02.4,1091.5,M,45.0,M,,*4C
$GPRMC,134751.000,A,5205.1648,N,00205.5406,W,18.81,93.42,050612,,,A*7C
$GPVTG,93.42,T,,,18.81,N,34.84,K,A*47
$GPGGA,134752.000,5205.1643,N,00205.5321,W,1,05,02.4,1095.1,M,45.0,M,,*46
$GPGSA,A,3,03,07,18,19,22,,,,,,,,3.3,2.4,2.3*30
$GPRMC,134752.000,A,5205.1643,N,00205.5321,W,18.81,93.42,050612,,,A*76
$GPVTG,93.42,T,,,18.81,N,34.84,K,A*47
$GPGGA,134753.000,5205.1638,N,00205.5236,W,1,05,02.4,1098.6,M,45.0,M,,*46
$GPGSV,2,1,08,03,89,276,30,07,63,181,22,11,,,,12,,,*79
$GPGSV,2.2,08,18,73,111,35,19,33,057,27,22,57,173,37,27,,,*40
$GPRMC,134753.000,A,5205.1638,N,00205.5236,W,18.81,93.42,050612,,,A*7C
$GPVTG,93.42,T,,,18.81,N,34.84,K,A*47
$GPGGA,134754.000,5205.1633,N,00205.5152,W,1,05,02.4,1102.1,M,45.0,M,,*4E
$GPRMC,134754.000,A,5205.1633,N,00205.5152,W,18.81,93.42,050612,,,A*71
$GPVTG,93.42,T,,,18.81,N,34.84,K,A*47
$GPGGA,134755.000,5205.1628,N,00205.5067,W,1,05,02.4,1105.6,M,45.0,M,,*42
$GPGSA,A,3,03,07,18,19,22,,,,,,,,3.3,2.4,2.3*30
$GPRMC,134755.000,A,5205.1628,N,00205.5067,W,18.81,93.42,050612,,,A*7D
$GPVTG,93.42,T,,,18.81,N,34.84,K,A*47
$GPGGA,134756.000,5205.1623,N,00205.4983,W,1,05,02.4,1109.2,M,45.0,M,,*40
$GPGSV,2,1,08,03,89,276,30,07,63,181,22,11,,,,12,,,*79
$GPGSV,2.2,08,18,73,111,35,19,33,057,27,22,57,173,37,27,,,*40
$GPRMC,134756.000,A,5205.1623,N,00205.4983,W,18.81,93.42,050612,,,A*77
$GPVTG,93.42,T,,,18.81,N,34.84,K,A*47
$GPGGA,134757.000,5205.1618,N,00205.4898,W,1,05,02.4,1112.7,M,45.0,M,,*4D
$GPRMC,134757.000,A,5205.1618,N,00205.4898,W,18.81,93.42,050612,,,A*75
$GPVTG,93.42,T,,,18.81,N,34.84,K,A*47
$GPGGA,134758.000,5205.1613,N,00205.4814,W,1,05,02.4,1116.2,M,45.0,M,,*4C
$GPGSA,A,3,03,07,18,19,22,,,,,,,,3.3,2.4,2.3*30
$GPRMC,134758.000,A,5205.1613,N,00205.4814,W,18.81,93.42,050612,,,A*75
$GPVTG,93.42,T,,,18.81,N,34.84,K,A*47
$GPGGA,134759.000,5205.1608,N,00205.4729,W,1,05,02.4,1119.7,M,45.0,M,,*4C
$GPGSV,2,1,08,03,89,276,30,07,63,181,22,11,,,,12,,,*79
$GPGSV,2.2,08,18,73,111,35,19,33,057,27,22,57,173,37,27,,,*40
$GPRMC,134759.000,A,5205.1608,N,00205.4729,W,18.81,93.42,050612,,,A*7F
$GPVTG,93.42,T,,,18.81,N,34.84,K,A*47
$GPGGA,134800.000,5205.1603,N,00205.4644,W,1,05,02.4,1123.2,M,45.0,M,,*42
