$GPGGA,203931.000,5215.1039,N,00005.4828,W,1,05,02.4,56.0,M,45.0,M,,*4E
$GPGSA,A,3,03,07,18,19,22,,,,,,,,3.3,2.4,2.3*30
$GPRMC,203931.000,A,5215.1039,N,00005.4828,W,27.22,100.80,170911,,,A*4E
$GPVTG,100.80,T,,,27.22,N,50.40,K,A*7D
$GPGGA,203932.000,5215.1017,N,00005.4710,W,1,05,02.4,60.4,M,45.0,M,,*44
$GPGSV,2,1,08,03,89,276,30,07,63,181,22,11,,,,12,,,*79
$GPGSV,2.2,08,18,73,111,35,19,33,057,27,22,57,173,37,27,,,*40
$GPRMC,203932.000,A,5215.1017,N,00005.4710,W,27.22,100.80,170911,,,A*45
$GPVTG,100.80,T,,,27.22,N,50.40,K,A*7D
$GPGGA,203933.000,5215.0994,N,00005.4592,W,1,05,02.4,64.7,M,45.0,M,,*49
$GPRMC,203933.000,A,5215.0994,N,00005.4592,W,27.22,100.80,170911,,,A*4F
$GPVTG,100.80,T,,,27.22,N,50.40,K,A*7D
$GPGGA,203934.000,5215.0972,N,00005.4475,W,1,05,02.4,69.1,M,45.0,M,,*45
$GPGSA,A,3,03,07,18,19,22,,,,,,,,3.3,2.4,2.3*30
$GPRMC,203934.000,A,5215.0972,N,00005.4475,W,27.22,100.80,170911,,,A*48
$GPVTG,100.80,T,,,27.22,N,50.40,K,A*7D
$GPGGA,203935.000,5215.0949,N,00005.4357,W,1,05,02.4,73.5,M,45.0,M,,*44
$GPGSV,2,1,08,03,89,276,30,07,63,181,22,11,,,,12,,,*79
$GPGSV,2.2,08,18,73,111,35,19,33,057,27,22,57,173,37,27,,,*40
$GPRMC,203935.000,A,5215.0949,N,00005.4357,W,27.22,100.80,170911,,,A*46
$GPVTG,100.80,T,,,27.22,N,50.40,K,A*7D
$GPGGA,203936.000,5215.0927,N,00005.4239,W,1,05,02.4,77.8,M,45.0,M,,*4F
$GPRMC,203936.000,A,5215.0927,N,00005.4239,W,27.22,100.80,170911,,,A*44
$GPVTG,100.80,T,,,27.22,N,50.40,K,A*7D
$GPGGA,203937.000,5215.0904,N,00005.4121,W,1,05,02.4,82.2,M,45.0,M,,*45
$GPGSA,A,3,03,07,18,19,22,,,,,,,,3.3,2.4,2.3*30
$GPRMC,203937.000,A,5215.0904,N,00005.4121,W,27.22,100.80,170911,,,A*4E
$GPVTG,100.80,T,,,27.22,N,50.40,K,A*7D
$GPGGA,203938.000,5215.0882,N,00005.4003,W,1,05,02.4,86.5,M,45.0,M,,*47
$GPGSV,2,1,08,03,89,276,30,07,63,181,22,11,,,,12,,,*79
$GPGSV,2.2,08,18,73,111,35,19,33,057,27,22,57,173,37,27,,,*40
$GPRMC,203938.000,A,5215.0882,N,00005.4003,W,27.22,100.80,170911,,,A*4F
$GPVTG,100.80,T,,,27.22,N,50.40,K,A*7D
$GPGGA,203939.000,5215.0859,N,00005.3885,W,1,05,02.4,90.9,M,45.0,M,,*4A
$GPRMC,203939.000,A,5215.0859,N,00005.3885,W,27.22,100.80,170911,,,A*49
$GPVTG,100.80,T,,,27.22,N,50.40,K,A*7D
$GPGGA,203940.000,5215.0837,N,00005.3768,W,1,05,02.4,95.3,M,45.0,M,,*4F
$GPGSA,A,3,03,07,18,19,22,,,,,,,,3.3,2.4,2.3*30
$GPRMC,203940.000,A,5215.0837,N,00005.3768,W,27.22,100.80,170911,,,A*43
$GPVTG,100.80,T,,,27.22,N,50.40,K,A*7D
$GPGGA,203941.000,5215.0814,N,00005.3650,W,1,05,02.4,99.6,M,45.0,M,,*4C
$GPGSV,2,1,08,03,89,276,30,07,63,181,22,11,,,,12,,,*79
$GPGSV,2.2,08,18,73,111,35,19,33,057,27,22,57,173,37,27,,,*40
$GPRMC,203941.000,A,5215.0814,N,00005.3650,W,27.22,100.80,170911,,,A*49
$GPVTG,100.80,T,,,27.22,N,50.40,K,A*7D
$GPGGA,203942.000,5215.0792,N,00005.3532,W,1,05,02.4,104.0,M,45.0,M,,*7A
$GPRMC,203942.000,A,5215.0792,N,00005.3532,W,20.47,99.27,170911,,,A*74
$GPVTG,99.27,T,,,20.47,N,37.92,K,A*4B
$GPGGA,203943.000,5215.0777,N,00005.3442,W,1,05,02.4,108.3,M,45.0,M,,*79
$GPGSA,A,3,03,07,18,19,22,,,,,,,,3.3,2.4,2.3*30
$GPRMC,203943.000,A,5215.0777,N,00005.3442,W,20.47,99.27,170911,,,A*78
$GPVTG,99.27,T,,,20.47,N,37.92,K,A*4B
$GPGGA,203944.000,5215.0763,N,00005.3353,W,1,05,02.4,112.7,M,45.0,M,,*73
$GPGSV,2,1,08,03,89,276,30,07,63,181,22,11,,,,12,,,*79
$GPGSV,2.2,08,18,73,111,35,19,33,057,27,22,57,173,37,27,,,*40
$GPRMC,203944.000,A,5215.0763,N,00005.3353,W,20.47,99.27,170911,,,A*7D
$GPVTG,99.27,T,,,20.47,N,37.92,K,A*4B
$GPGGA,203945.000,5215.0748,N,00005.3263,W,1,05,02.4,117.0,M,45.0,M,,*7B
$GPRMC,203945.000,A,5215.0748,N,00005.3263,W,20.47,99.27,170911,,,A*77
$GPVTG,99.27,T,,,20.47,N,37.92,K,A*4B
$GPGGA,203946.000,5215.0733,N,00005.3173,W,1,05,02.4,121.4,M,45.0,M,,*77
$GPGSA,A,3,03,07,18,19,22,,,,,,,,3.3,2.4,2.3*30
$GPRMC,203946.000,A,5215.0733,N,00005.3173,W,20.47,99.27,170911,,,A*7A
$GPVTG,99.27,T,,,20.47,N,37.92,K,A*4B
$GPGGA,203947.000,5215.0719,N,00005.3084,W,1,05,02.4,125.7,M,45.0,M,,*70
$GPGSV,2,1,08,03,89,276,30,07,63,181,22,11,,,,12,,,*79
$GPGSV,2.2,08,18,73,111,35,19,33,057,27,22,57,173,37,27,,,*40
$GPRMC,203947.000,A,5215.0719,N,00005.3084,W,20.47,99.27,170911,,,A*7A
$GPVTG,99.27,T,,,20.47,N,37.92,K,A*4B
$GPGGA,203948.000,5215.0704,N,00005.2994,W,1,05,02.4,130.1,M,45.0,M,,*78
$GPRMC,203948.000,A,5215.0704,N,00005.2994,W,20.47,99.27,170911,,,A*70
$GPVTG,99.27,T,,,20.47,N,37.92,K,A*4B
$GPGGA,203949.000,5215.0689,N,00005.2904,W,1,05,02.4,134.4,M,45.0,M,,*75
$GPGSA,A,3,03,07,18,19,22,,,,,,,,3.3,2.4,2.3*30
$GPRMC,203949.000,A,5215.0689,N,00005.2904,W,20.47,99.27,170911,,,A*7C
$GPVTG,99.27,T,,,20.47,N,37.92,K,A*4B
$GPGGA,203950.000,5215.0675,N,00005.2814,W,1,05,02.4,138.8,M,45.0,M,,*7E
$GPGSV,2,1,08,03,89,276,30,07,63,181,22,11,,,,12,,,*79
$GPGSV,2.2,08,18,73,111,35,19,33,057,27,22,57,173,37,27,,,*40
$GPRMC,203950.000,A,5215.0675,N,00005.2814,W,20.47,99.27,170911,,,A*77
$GPVTG,99.27,T,,,20.47,N,37.92,K,A*4B
$GPGGA,203951.000,5215.0660,N,00005.2725,W,1,05,02.4,143.1,M,45.0,M,,*73
$GPRMC,203951.000,A,5215.0660,N,00005.2725,W,20.47,99.27,170911,,,A*7F
$GPVTG,99.27,T,,,20.47,N,37.92,K,A*4B
$GPGGA,203952.000,5215.0645,N,00005.2635,W,1,05,02.4,147.5,M,45.0,M,,*77
$GPGSA,A,3,03,07,18,19,22,,,,,,,,3.3,2.4,2.3*30
$GPRMC,203952.000,A,5215.0645,N,00005.2635,W,20.47,99.27,170911,,,A*7B
$GPVTG,99.27,T,,,20.47,N,37.92,K,A*4B
$GPGGA,203953.000,5215.0631,N,00005.2545,W,1,05,02.4,151.8,M,45.0,M,,*7B
$GPGSV,2,1,08,03,89,276,30,07,63,181,22,11,,,,12,,,*79
$GPGSV,2.2,08,18,73,111,35,19,33,057,27,22,57,173,37,27,,,*40
$GPRMC,203953.000,A,5215.0631,N,00005.2545,W,20.47,99.27,170911,,,A*7D
$GPVTG,99.27,T,,,20.47,N,37.92,K,A*4B
$GPGGA,203954.000,5215.0616,N,00005.2456,W,1,05,02.4,156.2,M,45.0,M,,*77
$GPRMC,203954.000,A,5215.0616,N,00005.2456,W,20.47,99.27,170911,,,A*7C
$GPVTG,99.27,T,,,20.47,N,37.92,K,A*4B
$GPGGA,203955.000,5215.0602,N,00005.2366,W,1,05,02.4,160.5,M,45.0,M,,*75
$GPGSA,A,3,03,07,18,19,22,,,,,,,,3.3,2.4,2.3*30
$GPRMC,203955.000,A,5215.0602,N,00005.2366,W,20.47,99.27,170911,,,A*7C
$GPVTG,99.27,T,,,20.47,N,37.92,K,A*4B
$GPGGA,203956.000,5215.0587,N,00005.2276,W,1,05,02.4,164.9,M,45.0,M,,*70
$GPGSV,2,1,08,03,89,276,30,07,63,181,22,11,,,,12,,,*79
$GPGSV,2.2,08,18,73,111,35,19,33,057,27,22,57,173,37,27,,,*40
$GPRMC,203956.000,A,5215.0587,N,00005.2276,W,20.47,99.27,170911,,,A*71
$GPVTG,99.27,T,,,20.47,N,37.92,K,A*4B
$GPGGA,203957.000,5215.0572,N,00005.2187,W,1,05,02.4,169.2,M,45.0,M,,*70
$GPRMC,203957.000,A,5215.0572,N,00005.2187,W,20.47,99.27,170911,,,A*77
$GPVTG,99.27,T,,,20.47,N,37.92,K,A*4B
$GPGGA,203958.000,5215.0558,N,00005.2097,W,1,05,02.4,173.6,M,45.0,M,,*78
$GPGSA,A,3,03,07,18,19,22,,,,,,,,3.3,2.4,2.3*30
$GPRMC,203958.000,A,5215.0558,N,00005.2097,W,20.47,99.27,170911,,,A*70
$GPVTG,99.27,T,,,20.47,N,37.92,K,A*4B
$GPGGA,203959.000,5215.0543,N,00005.2007,W,1,05,02.4,177.9,M,45.0,M,,*71
$GPGSV,2,1,08,03,89,276,30,07,63,181,22,11,,,,12,,,*79
$GPGSV,2.2,08,18,73,111,35,19,33,057,27,22,57,173,37,27,,,*40
$GPRMC,203959.000,A,5215.0543,N,00005.2007,W,20.47,99.27,170911,,,A*72
$GPVTG,99.27,T,,,20.47,N,37.92,K,A*4B
$GPGGA,204000.000,5215.0528,N,00005.1917,W,1,05,02.4,182.3,M,45.0,M,,*75
$GPRMC,204000.000,A,5215.0528,N,00005.1917,W,20.47,99.27,170911,,,A*76
$GPVTG,99.27,T,,,20.47,N,37.92,K,A*4B
$GPGGA,204001.000,5215.0514,N,00005.1828,W,1,05,02.4,186.6,M,45.0,M,,*77
$GPGSA,A,3,03,07,18,19,22,,,,,,,,3.3,2.4,2.3*30
$GPRMC,204001.000,A,5215.0514,N,00005.1828,W,20.47,99.27,170911,,,A*75
$GPVTG,99.27,T,,,20.47,N,37.92,K,A*4B
$GPGGA,204002.000,5215.0499,N,00005.1738,W,1,05,02.4,191.0,M,45.0,M,,*7E
$GPGSV,2,1,08,03,89,276,30,07,63,181,22,11,,,,12,,,*79
$GPGSV,2.2,08,18,73,111,35,19,33,057,27,22,57,173,37,27,,,*40
$GPRMC,204002.000,A,5215.0499,N,00005.1738,W,22.33,102.33,170911,,,A*4B
$GPVTG,102.33,T,,,22.33,N,41.36,K,A*73
$GPGGA,204003.000,5215.0478,N,00005.1643,W,1,05,02.4,195.4,M,45.0,M,,*7D
$GPRMC,204003.000,A,5215.0478,N,00005.1643,W,22.33,102.33,170911,,,A*48
$GPVTG,102.33,T,,,22.33,N,41.36,K,A*73
$GPGGA,204004.000,5215.0457,N,00005.1547,W,1,05,02.4,199.7,M,45.0,M,,*7F
$GPGSA,A,3,03,07,18,19,22,,,,,,,,3.3,2.4,2.3*30
$GPRMC,204004.000,A,5215.0457,N,00005.1547,W,22.33,102.33,170911,,,A*45
$GPVTG,102.33,T,,,22.33,N,41.36,K,A*73
$GPGGA,204005.000,5215.0436,N,00005.1452,W,1,05,02.4,204.1,M,45.0,M,,*7D
$GPGSV,2,1,08,03,89,276,30,07,63,181,22,11,,,,12,,,*79
$GPGSV,2.2,08,18,73,111,35,19,33,057,27,22,57,173,37,27,,,*40
$GPRMC,204005.000,A,5215.0436,N,00005.1452,W,22.33,102.33,170911,,,A*46
$GPVTG,102.33,T,,,22.33,N,41.36,K,A*73
$GPGGA,204006.000,5215.0416,N,00005.1357,W,1,05,02.4,208.5,M,45.0,M,,*76
$GPRMC,204006.000,A,5215.0416,N,00005.1357,W,22.33,102.33,170911,,,A*45
$GPVTG,102.33,T,,,22.33,N,41.36,K,A*73
$GPGGA,204007.000,5215.0395,N,00005.1261,W,1,05,02.4,212.8,M,45.0,M,,*79
$GPGSA,A,3,03,07,18,19,22,,,,,,,,3.3,2.4,2.3*30
$GPRMC,204007.000,A,5215.0395,N,00005.1261,W,22.33,102.33,170911,,,A*4C
$GPVTG,102.33,T,,,22.33,N,41.36,K,A*73
$GPGGA,204008.000,5215.0374,N,00005.1166,W,1,05,02.4,217.2,M,45.0,M,,*72
$GPGSV,2,1,08,03,89,276,30,07,63,181,22,11,,,,12,,,*79
$GPGSV,2.2,08,18,73,111,35,19,33,057,27,22,57,173,37,27,,,*40
$GPRMC,204008.000,A,5215.0374,N,00005.1166,W,22.33,102.33,170911,,,A*48
$GPVTG,102.33,T,,,22.33,N,41.36,K,A*73
$GPGGA,204009.000,5215.0353,N,00005.1070,W,1,05,02.4,221.6,M,45.0,M,,*71
$GPRMC,204009.000,A,5215.0353,N,00005.1070,W,22.33,102.33,170911,,,A*4A
$GPVTG,102.33,T,,,22.33,N,41.36,K,A*73
$GPGGA,204010.000,5215.0332,N,00005.0975,W,1,05,02.4,225.9,M,45.0,M,,*78
$GPGSA,A,3,03,07,18,19,22,,,,,,,,3.3,2.4,2.3*30
$GPRMC,204010.000,A,5215.0332,N,00005.0975,W,22.33,102.33,170911,,,A*48
$GPVTG,102.33,T,,,22.33,N,41.36,K,A*73
$GPGGA,204011.000,5215.0311,N,00005.0880,W,1,05,02.4,230.3,M,45.0,M,,*7D
$GPGSV,2,1,08,03,89,276,30,07,63,181,22,11,,,,12,,,*79
$GPGSV,2.2,08,18,73,111,35,19,33,057,27,22,57,173,37,27,,,*40
$GPRMC,204011.000,A,5215.0311,N,00005.0880,W,22.33,102.33,170911,,,A*43
$GPVTG,102.33,T,,,22.33,N,41.36,K,A*73
$GPGGA,204012.000,5215.0291,N,00005.0784,W,1,05,02.4,234.7,M,45.0,M,,*7C
$GPRMC,204012.000,A,5215.0291,N,00005.0784,W,22.33,102.33,170911,,,A*42
$GPVTG,102.33,T,,,22.33,N,41.36,K,A*73
$GPGGA,204013.000,5215.0270,N,00005.0689,W,1,05,02.4,239.1,M,45.0,M,,*75
$GPGSA,A,3,03,07,18,19,22,,,,,,,,3.3,2.4,2.3*30
$GPRMC,204013.000,A,5215.0270,N,00005.0689,W,22.33,102.33,170911,,,A*40
$GPVTG,102.33,T,,,22.33,N,41.36,K,A*73
$GPGGA,204014.000,5215.0249,N,00005.0594,W,1,05,02.4,243.4,M,45.0,M,,*7F
$GPGSV,2,1,08,03,89,276,30,07,63,181,22,11,,,,12,,,*79
$GPGSV,2.2,08,18,73,111,35,19,33,057,27,22,57,173,37,27,,,*40
$GPRMC,204014.000,A,5215.0249,N,00005.0594,W,22.33,102.33,170911,,,A*42
$GPVTG,102.33,T,,,22.33,N,41.36,K,A*73
$GPGGA,204015.000,5215.0228,N,00005.0498,W,1,05,02.4,247.8,M,45.0,M,,*7C
$GPRMC,204015.000,A,5215.0228,N,00005.0498,W,22.33,102.33,170911,,,A*49
$GPVTG,102.33,T,,,22.33,N,41.36,K,A*73
$GPGGA,204016.000,5215.0207,N,00005.0403,W,1,05,02.4,252.2,M,45.0,M,,*7E
$GPGSA,A,3,03,07,18,19,22,,,,,,,,3.3,2.4,2.3*30
$GPRMC,204016.000,A,5215.0207,N,00005.0403,W,22.33,102.33,170911,,,A*45
$GPVTG,102.33,T,,,22.33,N,41.36,K,A*73
$GPGGA,204017.000,5215.0186,N,00005.0307,W,1,05,02.4,256.5,M,45.0,M,,*75
$GPGSV,2,1,08,03,89,276,30,07,63,181,22,11,,,,12,,,*79
$GPGSV,2.2,08,18,73,111,35,19,33,057,27,22,57,173,37,27,,,*40
$GPRMC,204017.000,A,5215.0186,N,00005.0307,W,22.33,102.33,170911,,,A*4D
$GPVTG,102.33,T,,,22.33,N,41.36,K,A*73
$GPGGA,204018.000,5215.0166,N,00005.0212,W,1,05,02.4,260.9,M,45.0,M,,*78
$GPRMC,204018.000,A,5215.0166,N,00005.0212,W,22.33,102.33,170911,,,A*49
$GPVTG,102.33,T,,,22.33,N,41.36,K,A*73
$GPGGA,204019.000,5215.0145,N,00005.0117,W,1,05,02.4,265.3,M,45.0,M,,*71
$GPGSA,A,3,03,07,18,19,22,,,,,,,,3.3,2.4,2.3*30
$GPRMC,204019.000,A,5215.0145,N,00005.0117,W,22.33,102.33,170911,,,A*4F
$GPVTG,102.33,T,,,22.33,N,41.36,K,A*73
$GPGGA,204020.000,5215.0124,N,00005.0021,W,1,05,02.4,269.6,M,45.0,M,,*71
$GPGSV,2,1,08,03,89,276,30,07,63,181,22,11,,,,12,,,*79
$GPGSV,2.2,08,18,73,111,35,19,33,057,27,22,57,173,37,27,,,*40
$GPRMC,204020.000,A,5215.0124,N,00005.0021,W,22.33,102.33,170911,,,A*46
$GPVTG,102.33,T,,,22.33,N,41.36,K,A*73
$GPGGA,204021.000,5215.0103,N,00004.9926,W,1,05,02.4,274.0,M,45.0,M,,*79
$GPRMC,204021.000,A,5215.0103,N,00004.9926,W,20.10,99.10,170911,,,A*75
$GPVTG,99.10,T,,,20.10,N,37.23,K,A*47
$GPGGA,204022.000,5215.0089,N,00004.9838,W,1,05,02.4,278.3,M,45.0,M,,*78
$GPGSA,A,3,03,07,18,19,22,,,,,,,,3.3,2.4,2.3*30
$GPRMC,204022.000,A,5215.0089,N,00004.9838,W,20.10,99.10,170911,,,A*7B
$GPVTG,99.10,T,,,20.10,N,37.23,K,A*47
$GPGGA,204023.000,5215.0075,N,00004.9750,W,1,05,02.4,282.7,M,45.0,M,,*7A
$GPGSV,2,1,08,03,89,276,30,07,63,181,22,11,,,,12,,,*79
$GPGSV,2.2,08,18,73,111,35,19,33,057,27,22,57,173,37,27,,,*40
$GPRMC,204023.000,A,5215.0075,N,00004.9750,W,20.10,99.10,170911,,,A*78
$GPVTG,99.10,T,,,20.10,N,37.23,K,A*47
$GPGGA,204024.000,5215.0061,N,00004.9661,W,1,05,02.4,287.0,M,45.0,M,,*79
$GPRMC,204024.000,A,5215.0061,N,00004.9661,W,20.10,99.10,170911,,,A*79
$GPVTG,99.10,T,,,20.10,N,37.23,K,A*47
$GPGGA,204025.000,5215.0046,N,00004.9573,W,1,05,02.4,291.4,M,45.0,M,,*7E
$GPGSA,A,3,03,07,18,19,22,,,,,,,,3.3,2.4,2.3*30
$GPRMC,204025.000,A,5215.0046,N,00004.9573,W,20.10,99.10,170911,,,A*7D
$GPVTG,99.10,T,,,20.10,N,37.23,K,A*47
$GPGGA,204026.000,5215.0032,N,00004.9485,W,1,05,02.4,295.7,M,45.0,M,,*71
$GPGSV,2,1,08,03,89,276,30,07,63,181,22,11,,,,12,,,*79
$GPGSV,2.2,08,18,73,111,35,19,33,057,27,22,57,173,37,27,,,*40
$GPRMC,204026.000,A,5215.0032,N,00004.9485,W,20.10,99.10,170911,,,A*75
$GPVTG,99.10,T,,,20.10,N,37.23,K,A*47
$GPGGA,204027.000,5215.0018,N,00004.9397,W,1,05,02.4,300.1,M,45.0,M,,*77
$GPRMC,204027.000,A,5215.0018,N,00004.9397,W,20.10,99.10,170911,,,A*78
$GPVTG,99.10,T,,,20.10,N,37.23,K,A*47
$GPGGA,204028.000,5215.0004,N,00004.9309,W,1,05,02.4,304.4,M,45.0,M,,*73
$GPGSA,A,3,03,07,18,19,22,,,,,,,,3.3,2.4,2.3*30
$GPRMC,204028.000,A,5215.0004,N,00004.9309,W,20.10,99.10,170911,,,A*7D
$GPVTG,99.10,T,,,20.10,N,37.23,K,A*47
$GPGGA,204029.000,5214.9990,N,00004.9221,W,1,05,02.4,308.8,M,45.0,M,,*75
$GPGSV,2,1,08,03,89,276,30,07,63,181,22,11,,,,12,,,*79
$GPGSV,2.2,08,18,73,111,35,19,33,057,27,22,57,173,37,27,,,*40
$GPRMC,204029.000,A,5214.9990,N,00004.9221,W,20.10,99.10,170911,,,A*7B
$GPVTG,99.10,T,,,20.10,N,37.23,K,A*47
$GPGGA,204030.000,5214.9976,N,00004.9132,W,1,05,02.4,313.1,M,45.0,M,,*77
$GPRMC,204030.000,A,5214.9976,N,00004.9132,W,20.10,99.10,170911,,,A*7A
$GPVTG,99.10,T,,,20.10,N,37.23,K,A*47
$GPGGA,204031.000,5214.9962,N,00004.9044,W,1,05,02.4,317.5,M,45.0,M,,*73
$GPGSA,A,3,03,07,18,19,22,,,,,,,,3.3,2.4,2.3*30
$GPRMC,204031.000,A,5214.9962,N,00004.9044,W,20.10,99.10,170911,,,A*7E
$GPVTG,99.10,T,,,20.10,N,37.23,K,A*47
$GPGGA,204032.000,5214.9948,N,00004.8956,W,1,05,02.4,321.8,M,45.0,M,,*7B
$GPGSV,2,1,08,03,89,276,30,07,63,181,22,11,,,,12,,,*79
$GPGSV,2.2,08,18,73,111,35,19,33,057,27,22,57,173,37,27,,,*40
$GPRMC,204032.000,A,5214.9948,N,00004.8956,W,20.10,99.10,170911,,,A*7E
$GPVTG,99.10,T,,,20.10,N,37.23,K,A*47
$GPGGA,204033.000,5214.9933,N,00004.8868,W,1,05,02.4,326.2,M,45.0,M,,*77
$GPRMC,204033.000,A,5214.9933,N,00004.8868,W,20.10,99.10,170911,,,A*7F
$GPVTG,99.10,T,,,20.10,N,37.23,K,A*47
$GPGGA,204034.000,5214.9919,N,00004.8780,W,1,05,02.4,330.5,M,45.0,M,,*71
$GPGSA,A,3,03,07,18,19,22,,,,,,,,3.3,2.4,2.3*30
$GPRMC,204034.000,A,5214.9919,N,00004.8780,W,20.10,99.10,170911,,,A*79
$GPVTG,99.10,T,,,20.10,N,37.23,K,A*47
$GPGGA,204035.000,5214.9905,N,00004.8692,W,1,05,02.4,334.9,M,45.0,M,,*77
$GPGSV,2,1,08,03,89,276,30,07,63,181,22,11,,,,12,,,*79
$GPGSV,2.2,08,18,73,111,35,19,33,057,27,22,57,173,37,27,,,*40
$GPRMC,204035.000,A,5214.9905,N,00004.8692,W,20.10,99.10,170911,,,A*77
$GPVTG,99.10,T,,,20.10,N,37.23,K,A*47
$GPGGA,204036.000,5214.9891,N,00004.8603,W,1,05,02.4,339.2,M,45.0,M,,*76
$GPRMC,204036.000,A,5214.9891,N,00004.8603,W,20.10,99.10,170911,,,A*70
$GPVTG,99.10,T,,,20.10,N,37.23,K,A*47
$GPGGA,204037.000,5214.9877,N,00004.8515,W,1,05,02.4,343.6,M,45.0,M,,*72
$GPGSA,A,3,03,07,18,19,22,,,,,,,,3.3,2.4,2.3*30
$GPRMC,204037.000,A,5214.9877,N,00004.8515,W,20.10,99.10,170911,,,A*7D
$GPVTG,99.10,T,,,20.10,N,37.23,K,A*47
$GPGGA,204038.000,5214.9863,N,00004.8427,W,1,05,02.4,347.9,M,45.0,M,,*73
$GPGSV,2,1,08,03,89,276,30,07,63,181,22,11,,,,12,,,*79
$GPGSV,2.2,08,18,73,111,35,19,33,057,27,22,57,173,37,27,,,*40
$GPRMC,204038.000,A,5214.9863,N,00004.8427,W,20.10,99.10,170911,,,A*77
$GPVTG,99.10,T,,,20.10,N,37.23,K,A*47
$GPGGA,204039.000,5214.9849,N,00004.8339,W,1,05,02.4,352.3,M,45.0,M,,*7C
$GPRMC,204039.000,A,5214.9849,N,00004.8339,W,20.10,99.10,170911,,,A*76
$GPVTG,99.10,T,,,20.10,N,37.23,K,A*47
$GPGGA,204040.000,5214.9835,N,00004.8251,W,1,05,02.4,356.6,M,45.0,M,,*77
$GPGSA,A,3,03,07,18,19,22,,,,,,,,3.3,2.4,2.3*30
$GPRMC,204040.000,A,5214.9835,N,00004.8251,W,20.10,99.10,170911,,,A*7C
$GPVTG,99.10,T,,,20.10,N,37.23,K,A*47
$GPGGA,204041.000,5214.9820,N,00004.8163,W,1,05,02.4,361.0,M,45.0,M,,*72
$GPGSV,2,1,08,03,89,276,30,07,63,181,22,11,,,,12,,,*79
$GPGSV,2.2,08,18,73,111,35,19,33,057,27,22,57,173,37,27,,,*40
$GPRMC,204041.000,A,5214.9820,N,00004.8163,W,20.10,99.10,170911,,,A*7B
$GPVTG,99.10,T,,,20.10,N,37.23,K,A*47
$GPGGA,204042.000,5214.9806,N,00004.8074,W,1,05,02.4,365.3,M,45.0,M,,*75
$GPRMC,204042.000,A,5214.9806,N,00004.8074,W,20.10,99.10,170911,,,A*7B
$GPVTG,99.10,T,,,20.10,N,37.23,K,A*47
$GPGGA,204043.000,5214.9792,N,00004.7986,W,1,05,02.4,369.7,M,45.0,M,,*75
$GPGSA,A,3,03,07,18,19,22,,,,,,,,3.3,2.4,2.3*30
$GPRMC,204043.000,A,5214.9792,N,00004.7986,W,20.10,99.10,170911,,,A*73
$GPVTG,99.10,T,,,20.10,N,37.23,K,A*47
$GPGGA,204044.000,5214.9778,N,00004.7898,W,1,05,02.4,374.0,M,45.0,M,,*73
$GPGSV,2,1,08,03,89,276,30,07,63,181,22,11,,,,12,,,*79
$GPGSV,2.2,08,18,73,111,35,19,33,057,27,22,57,173,37,27,,,*40
$GPRMC,204044.000,A,5214.9778,N,00004.7898,W,28.21,104.27,170911,,,A*45
$GPVTG,104.27,T,,,28.21,N,52.25,K,A*79
$GPGGA,204045.000,5214.9748,N,00004.7780,W,1,05,02.4,378.2,M,45.0,M,,*79
$GPRMC,204045.000,A,5214.9748,N,00004.7780,W,28.21,104.27,170911,,,A*41
$GPVTG,104.27,T,,,28.21,N,52.25,K,A*79
$GPGGA,204046.000,5214.9718,N,00004.7662,W,1,05,02.4,382.5,M,45.0,M,,*70
$GPGSA,A,3,03,07,18,19,22,,,,,,,,3.3,2.4,2.3*30
$GPRMC,204046.000,A,5214.9718,N,00004.7662,W,28.21,104.27,170911,,,A*4A
$GPVTG,104.27,T,,,28.21,N,52.25,K,A*79
$GPGGA,204047.000,5214.9688,N,00004.7544,W,1,05,02.4,386.8,M,45.0,M,,*77
$GPGSV,2,1,08,03,89,276,30,07,63,181,22,11,,,,12,,,*79
$GPGSV,2.2,08,18,73,111,35,19,33,057,27,22,57,173,37,27,,,*40
$GPRMC,204047.000,A,5214.9688,N,00004.7544,W,28.21,104.27,170911,,,A*44
$GPVTG,104.27,T,,,28.21,N,52.25,K,A*79
$GPGGA,204048.000,5214.9658,N,00004.7425,W,1,05,02.4,391.0,M,45.0,M,,*7D
$GPRMC,204048.000,A,5214.9658,N,00004.7425,W,28.21,104.27,170911,,,A*40
$GPVTG,104.27,T,,,28.21,N,52.25,K,A*79
$GPGGA,204049.000,5214.9628,N,00004.7307,W,1,05,02.4,395.2,M,45.0,M,,*7A
$GPGSA,A,3,03,07,18,19,22,,,,,,,,3.3,2.4,2.3*30
$GPRMC,204049.000,A,5214.9628,N,00004.7307,W,28.21,104.27,170911,,,A*41
$GPVTG,104.27,T,,,28.21,N,52.25,K,A*79
$GPGGA,204050.000,5214.9598,N,00004.7189,W,1,05,02.4,399.5,M,45.0,M,,*75
$GPGSV,2,1,08,03,89,276,30,07,63,181,22,11,,,,12,,,*79
$GPGSV,2.2,08,18,73,111,35,19,33,057,27,22,57,173,37,27,,,*40
$GPRMC,204050.000,A,5214.9598,N,00004.7189,W,28.21,104.27,170911,,,A*45
$GPVTG,104.27,T,,,28.21,N,52.25,K,A*79
$GPGGA,204051.000,5214.9568,N,00004.7071,W,1,05,02.4,403.8,M,45.0,M,,*74
$GPRMC,204051.000,A,5214.9568,N,00004.7071,W,28.21,104.27,170911,,,A*4D
$GPVTG,104.27,T,,,28.21,N,52.25,K,A*79
$GPGGA,204052.000,5214.9538,N,00004.6953,W,1,05,02.4,408.0,M,45.0,M,,*79
$GPGSA,A,3,03,07,18,19,22,,,,,,,,3.3,2.4,2.3*30
$GPRMC,204052.000,A,5214.9538,N,00004.6953,W,28.21,104.27,170911,,,A*43
$GPVTG,104.27,T,,,28.21,N,52.25,K,A*79
$GPGGA,204053.000,5214.9508,N,00004.6835,W,1,05,02.4,412.2,M,45.0,M,,*73
$GPGSV,2,1,08,03,89,276,30,07,63,181,22,11,,,,12,,,*79
$GPGSV,2.2,08,18,73,111,35,19,33,057,27,22,57,173,37,27,,,*40
$GPRMC,204053.000,A,5214.9508,N,00004.6835,W,28.21,104.27,170911,,,A*40
$GPVTG,104.27,T,,,28.21,N,52.25,K,A*79
$GPGGA,204054.000,5214.9478,N,00004.6717,W,1,05,02.4,416.5,M,45.0,M,,*7E
$GPRMC,204054.000,A,5214.9478,N,00004.6717,W,28.21,104.27,170911,,,A*4E
$GPVTG,104.27,T,,,28.21,N,52.25,K,A*79
$GPGGA,204055.000,5214.9448,N,00004.6599,W,1,05,02.4,420.8,M,45.0,M,,*70
$GPGSA,A,3,03,07,18,19,22,,,,,,,,3.3,2.4,2.3*30
$GPRMC,204055.000,A,5214.9448,N,00004.6599,W,28.21,104.27,170911,,,A*48
$GPVTG,104.27,T,,,28.21,N,52.25,K,A*79
$GPGGA,204056.000,5214.9417,N,00004.6480,W,1,05,02.4,425.0,M,45.0,M,,*7D
$GPGSV,2,1,08,03,89,276,30,07,63,181,22,11,,,,12,,,*79
$GPGSV,2.2,08,18,73,111,35,19,33,057,27,22,57,173,37,27,,,*40
$GPRMC,204056.000,A,5214.9417,N,00004.6480,W,28.21,104.27,170911,,,A*48
$GPVTG,104.27,T,,,28.21,N,52.25,K,A*79
$GPGGA,204057.000,5214.9387,N,00004.6362,W,1,05,02.4,429.2,M,45.0,M,,*77
$GPRMC,204057.000,A,5214.9387,N,00004.6362,W,28.21,104.27,170911,,,A*4C
$GPVTG,104.27,T,,,28.21,N,52.25,K,A*79
$GPGGA,204058.000,5214.9357,N,00004.6244,W,1,05,02.4,433.5,M,45.0,M,,*7C
$GPGSA,A,3,03,07,18,19,22,,,,,,,,3.3,2.4,2.3*30
$GPRMC,204058.000,A,5214.9357,N,00004.6244,W,28.21,104.27,170911,,,A*4B
$GPVTG,104.27,T,,,28.21,N,52.25,K,A*79
$GPGGA,204059.000,5214.9327,N,00004.6126,W,1,05,02.4,437.8,M,45.0,M,,*74
$GPGSV,2,1,08,03,89,276,30,07,63,181,22,11,,,,12,,,*79
$GPGSV,2.2,08,18,73,111,35,19,33,057,27,22,57,173,37,27,,,*40
$GPRMC,204059.000,A,5214.9327,N,00004.6126,W,28.21,104.27,170911,,,A*4A
$GPVTG,104.27,T,,,28.21,N,52.25,K,A*79
$GPGGA,204100.000,5214.9297,N,00004.6008,W,1,05,02.4,442.0,M,45.0,M,,*74
$GPRMC,204100.000,A,5214.9297,N,00004.6008,W,23.06,106.69,170911,,,A*46
$GPVTG,106.69,T,,,23.06,N,42.71,K,A*7F
$GPGGA,204101.000,5214.9269,N,00004.5914,W,1,05,02.4,446.2,M,45.0,M,,*75
$GPGSA,A,3,03,07,18,19,22,,,,,,,,3.3,2.4,2.3*30
$GPRMC,204101.000,A,5214.9269,N,00004.5914,W,23.06,106.69,170911,,,A*41
$GPVTG,106.69,T,,,23.06,N,42.71,K,A*7F
$GPGGA,204102.000,5214.9241,N,00004.5820,W,1,05,02.4,450.4,M,45.0,M,,*7B
$GPGSV,2,1,08,03,89,276,30,07,63,181,22,11,,,,12,,,*79
$GPGSV,2.2,08,18,73,111,35,19,33,057,27,22,57,173,37,27,,,*40
$GPRMC,204102.000,A,5214.9241,N,00004.5820,W,23.06,106.69,170911,,,A*4E
$GPVTG,106.69,T,,,23.06,N,42.71,K,A*7F
$GPGGA,204103.000,5214.9213,N,00004.5726,W,1,05,02.4,454.6,M,45.0,M,,*72
$GPRMC,204103.000,A,5214.9213,N,00004.5726,W,23.06,106.69,170911,,,A*41
$GPVTG,106.69,T,,,23.06,N,42.71,K,A*7F
$GPGGA,204104.000,5214.9185,N,00004.5632,W,1,05,02.4,458.8,M,45.0,M,,*7F
$GPGSA,A,3,03,07,18,19,22,,,,,,,,3.3,2.4,2.3*30
$GPRMC,204104.000,A,5214.9185,N,00004.5632,W,23.06,106.69,170911,,,A*4E
$GPVTG,106.69,T,,,23.06,N,42.71,K,A*7F
$GPGGA,204105.000,5214.9157,N,00004.5538,W,1,05,02.4,463.0,M,45.0,M,,*78
$GPGSV,2,1,08,03,89,276,30,07,63,181,22,11,,,,12,,,*79
$GPGSV,2.2,08,18,73,111,35,19,33,057,27,22,57,173,37,27,,,*40
$GPRMC,204105.000,A,5214.9157,N,00004.5538,W,23.06,106.69,170911,,,A*49
$GPVTG,106.69,T,,,23.06,N,42.71,K,A*7F
$GPGGA,204106.000,5214.9128,N,00004.5445,W,1,05,02.4,467.2,M,45.0,M,,*7E
$GPRMC,204106.000,A,5214.9128,N,00004.5445,W,23.06,106.69,170911,,,A*49
$GPVTG,106.69,T,,,23.06,N,42.71,K,A*7F
$GPGGA,204107.000,5214.9100,N,00004.5351,W,1,05,02.4,471.4,M,45.0,M,,*76
$GPGSA,A,3,03,07,18,19,22,,,,,,,,3.3,2.4,2.3*30
$GPRMC,204107.000,A,5214.9100,N,00004.5351,W,23.06,106.69,170911,,,A*40
$GPVTG,106.69,T,,,23.06,N,42.71,K,A*7F
$GPGGA,204108.000,5214.9072,N,00004.5257,W,1,05,02.4,475.6,M,45.0,M,,*7C
$GPGSV,2,1,08,03,89,276,30,07,63,181,22,11,,,,12,,,*79
$GPGSV,2.2,08,18,73,111,35,19,33,057,27,22,57,173,37,27,,,*40
$GPRMC,204108.000,A,5214.9072,N,00004.5257,W,23.06,106.69,170911,,,A*4C
$GPVTG,106.69,T,,,23.06,N,42.71,K,A*7F
$GPGGA,204109.000,5214.9044,N,00004.5163,W,1,05,02.4,479.8,M,45.0,M,,*7E
$GPRMC,204109.000,A,5214.9044,N,00004.5163,W,23.06,106.69,170911,,,A*4C
$GPVTG,106.69,T,,,23.06,N,42.71,K,A*7F
$GPGGA,204110.000,5214.9016,N,00004.5069,W,1,05,02.4,484.0,M,45.0,M,,*70
$GPGSA,A,3,03,07,18,19,22,,,,,,,,3.3,2.4,2.3*30
$GPRMC,204110.000,A,5214.9016,N,00004.5069,W,23.06,106.69,170911,,,A*48
$GPVTG,106.69,T,,,23.06,N,42.71,K,A*7F
$GPGGA,204111.000,5214.8988,N,00004.4975,W,1,05,02.4,488.2,M,45.0,M,,*75
$GPGSV,2,1,08,03,89,276,30,07,63,181,22,11,,,,12,,,*79
$GPGSV,2.2,08,18,73,111,35,19,33,057,27,22,57,173,37,27,,,*40
$GPRMC,204111.000,A,5214.8988,N,00004.4975,W,23.06,106.69,170911,,,A*43
$GPVTG,106.69,T,,,23.06,N,42.71,K,A*7F
$GPGGA,204112.000,5214.8960,N,00004.4881,W,1,05,02.4,492.4,M,45.0,M,,*77
$GPRMC,204112.000,A,5214.8960,N,00004.4881,W,23.06,106.69,170911,,,A*4C
$GPVTG,106.69,T,,,23.06,N,42.71,K,A*7F
$GPGGA,204113.000,5214.8931,N,00004.4787,W,1,05,02.4,496.6,M,45.0,M,,*7D
$GPGSA,A,3,03,07,18,19,22,,,,,,,,3.3,2.4,2.3*30
$GPRMC,204113.000,A,5214.8931,N,00004.4787,W,23.06,106.69,170911,,,A*40
$GPVTG,106.69,T,,,23.06,N,42.71,K,A*7F
$GPGGA,204114.000,5214.8903,N,00004.4693,W,1,05,02.4,500.8,M,45.0,M,,*7F
$GPGSV,2,1,08,03,89,276,30,07,63,181,22,11,,,,12,,,*79
$GPGSV,2.2,08,18,73,111,35,19,33,057,27,22,57,173,37,27,,,*40
$GPRMC,204114.000,A,5214.8903,N,00004.4693,W,23.06,106.69,170911,,,A*42
$GPVTG,106.69,T,,,23.06,N,42.71,K,A*7F
$GPGGA,204115.000,5214.8875,N,00004.4599,W,1,05,02.4,505.0,M,45.0,M,,*7A
$GPRMC,204115.000,A,5214.8875,N,00004.4599,W,23.06,106.69,170911,,,A*4A
$GPVTG,106.69,T,,,23.06,N,42.71,K,A*7F
$GPGGA,204116.000,5214.8847,N,00004.4506,W,1,05,02.4,509.2,M,45.0,M,,*70
$GPGSA,A,3,03,07,18,19,22,,,,,,,,3.3,2.4,2.3*30
$GPRMC,204116.000,A,5214.8847,N,00004.4506,W,23.06,106.69,170911,,,A*4E
$GPVTG,106.69,T,,,23.06,N,42.71,K,A*7F
$GPGGA,204117.000,5214.8819,N,00004.4412,W,1,05,02.4,513.4,M,45.0,M,,*73
$GPGSV,2,1,08,03,89,276,30,07,63,181,22,11,,,,12,,,*79
$GPGSV,2.2,08,18,73,111,35,19,33,057,27,22,57,173,37,27,,,*40
$GPRMC,204117.000,A,5214.8819,N,00004.4412,W,23.06,106.69,170911,,,A*40
$GPVTG,106.69,T,,,23.06,N,42.71,K,A*7F
$GPGGA,204118.000,5214.8791,N,00004.4318,W,1,05,02.4,517.6,M,45.0,M,,*78
$GPRMC,204118.000,A,5214.8791,N,00004.4318,W,23.06,106.69,170911,,,A*4D
$GPVTG,106.69,T,,,23.06,N,42.71,K,A*7F
$GPGGA,204119.000,5214.8762,N,00004.4224,W,1,05,02.4,521.8,M,45.0,M,,*70
$GPGSA,A,3,03,07,18,19,22,,,,,,,,3.3,2.4,2.3*30
$GPRMC,204119.000,A,5214.8762,N,00004.4224,W,23.06,106.69,170911,,,A*4E
$GPVTG,106.69,T,,,23.06,N,42.71,K,A*7F
$GPGGA,204120.000,5214.8734,N,00004.4130,W,1,05,02.4,526.0,M,45.0,M,,*70
$GPGSV,2,1,08,03,89,276,30,07,63,181,22,11,,,,12,,,*79
$GPGSV,2.2,08,18,73,111,35,19,33,057,27,22,57,173,37,27,,,*40
$GPRMC,204120.000,A,5214.8734,N,00004.4130,W,28.77,107.03,170911,,,A*41
$GPVTG,107.03,T,,,28.77,N,53.29,K,A*72
$GPGGA,204121.000,5214.8699,N,00004.4013,W,1,05,02.4,530.3,M,45.0,M,,*73
$GPRMC,204121.000,A,5214.8699,N,00004.4013,W,28.77,107.03,170911,,,A*46
$GPVTG,107.03,T,,,28.77,N,53.29,K,A*72
$GPGGA,204122.000,5214.8663,N,00004.3897,W,1,05,02.4,534.7,M,45.0,M,,*76
$GPGSA,A,3,03,07,18,19,22,,,,,,,,3.3,2.4,2.3*30
$GPRMC,204122.000,A,5214.8663,N,00004.3897,W,28.77,107.03,170911,,,A*43
$GPVTG,107.03,T,,,28.77,N,53.29,K,A*72
$GPGGA,204123.000,5214.8627,N,00004.3780,W,1,05,02.4,539.0,M,45.0,M,,*74
$GPGSV,2,1,08,03,89,276,30,07,63,181,22,11,,,,12,,,*79
$GPGSV,2.2,08,18,73,111,35,19,33,057,27,22,57,173,37,27,,,*40
$GPRMC,204123.000,A,5214.8627,N,00004.3780,W,28.77,107.03,170911,,,A*4B
$GPVTG,107.03,T,,,28.77,N,53.29,K,A*72
$GPGGA,204124.000,5214.8591,N,00004.3663,W,1,05,02.4,543.3,M,45.0,M,,*7F
$GPRMC,204124.000,A,5214.8591,N,00004.3663,W,28.77,107.03,170911,,,A*4E
$GPVTG,107.03,T,,,28.77,N,53.29,K,A*72
$GPGGA,204125.000,5214.8556,N,00004.3547,W,1,05,02.4,547.7,M,45.0,M,,*70
$GPGSA,A,3,03,07,18,19,22,,,,,,,,3.3,2.4,2.3*30
$GPRMC,204125.000,A,5214.8556,N,00004.3547,W,28.77,107.03,170911,,,A*41
$GPVTG,107.03,T,,,28.77,N,53.29,K,A*72
$GPGGA,204126.000,5214.8520,N,00004.3430,W,1,05,02.4,552.0,M,45.0,M,,*70
$GPGSV,2,1,08,03,89,276,30,07,63,181,22,11,,,,12,,,*79
$GPGSV,2.2,08,18,73,111,35,19,33,057,27,22,57,173,37,27,,,*40
$GPRMC,204126.000,A,5214.8520,N,00004.3430,W,28.77,107.03,170911,,,A*42
$GPVTG,107.03,T,,,28.77,N,53.29,K,A*72
$GPGGA,204127.000,5214.8484,N,00004.3313,W,1,05,02.4,556.3,M,45.0,M,,*7F
$GPRMC,204127.000,A,5214.8484,N,00004.3313,W,28.77,107.03,170911,,,A*4A
$GPVTG,107.03,T,,,28.77,N,53.29,K,A*72
$GPGGA,204128.000,5214.8448,N,00004.3197,W,1,05,02.4,560.7,M,45.0,M,,*7F
$GPGSA,A,3,03,07,18,19,22,,,,,,,,3.3,2.4,2.3*30
$GPRMC,204128.000,A,5214.8448,N,00004.3197,W,28.77,107.03,170911,,,A*4B
$GPVTG,107.03,T,,,28.77,N,53.29,K,A*72
$GPGGA,204129.000,5214.8413,N,00004.3080,W,1,05,02.4,565.0,M,45.0,M,,*75
$GPGSV,2,1,08,03,89,276,30,07,63,181,22,11,,,,12,,,*79
$GPGSV,2.2,08,18,73,111,35,19,33,057,27,22,57,173,37,27,,,*40
$GPRMC,204129.000,A,5214.8413,N,00004.3080,W,28.77,107.03,170911,,,A*43
$GPVTG,107.03,T,,,28.77,N,53.29,K,A*72
$GPGGA,204130.000,5214.8377,N,00004.2963,W,1,05,02.4,569.3,M,45.0,M,,*72
$GPRMC,204130.000,A,5214.8377,N,00004.2963,W,28.77,107.03,170911,,,A*4B
$GPVTG,107.03,T,,,28.77,N,53.29,K,A*72
$GPGGA,204131.000,5214.8341,N,00004.2847,W,1,05,02.4,573.7,M,45.0,M,,*7E
$GPGSA,A,3,03,07,18,19,22,,,,,,,,3.3,2.4,2.3*30
$GPRMC,204131.000,A,5214.8341,N,00004.2847,W,28.77,107.03,170911,,,A*48
$GPVTG,107.03,T,,,28.77,N,53.29,K,A*72
$GPGGA,204132.000,5214.8306,N,00004.2730,W,1,05,02.4,578.0,M,45.0,M,,*7D
$GPGSV,2,1,08,03,89,276,30,07,63,181,22,11,,,,12,,,*79
$GPGSV,2.2,08,18,73,111,35,19,33,057,27,22,57,173,37,27,,,*40
$GPRMC,204132.000,A,5214.8306,N,00004.2730,W,28.77,107.03,170911,,,A*47
$GPVTG,107.03,T,,,28.77,N,53.29,K,A*72
$GPGGA,204133.000,5214.8270,N,00004.2613,W,1,05,02.4,582.3,M,45.0,M,,*7A
$GPRMC,204133.000,A,5214.8270,N,00004.2613,W,28.77,107.03,170911,,,A*46
$GPVTG,107.03,T,,,28.77,N,53.29,K,A*72
$GPGGA,204134.000,5214.8234,N,00004.2497,W,1,05,02.4,586.7,M,45.0,M,,*73
$GPGSA,A,3,03,07,18,19,22,,,,,,,,3.3,2.4,2.3*30
$GPRMC,204134.000,A,5214.8234,N,00004.2497,W,28.77,107.03,170911,,,A*4F
$GPVTG,107.03,T,,,28.77,N,53.29,K,A*72
$GPGGA,204135.000,5214.8198,N,00004.2380,W,1,05,02.4,591.0,M,45.0,M,,*77
$GPGSV,2,1,08,03,89,276,30,07,63,181,22,11,,,,12,,,*79
$GPGSV,2.2,08,18,73,111,35,19,33,057,27,22,57,173,37,27,,,*40
$GPRMC,204135.000,A,5214.8198,N,00004.2380,W,28.77,107.03,170911,,,A*4A
$GPVTG,107.03,T,,,28.77,N,53.29,K,A*72
$GPGGA,204136.000,5214.8163,N,00004.2263,W,1,05,02.4,595.3,M,45.0,M,,*7B
$GPRMC,204136.000,A,5214.8163,N,00004.2263,W,28.77,107.03,170911,,,A*41
$GPVTG,107.03,T,,,28.77,N,53.29,K,A*72
$GPGGA,204137.000,5214.8127,N,00004.2147,W,1,05,02.4,599.7,M,45.0,M,,*77
$GPGSA,A,3,03,07,18,19,22,,,,,,,,3.3,2.4,2.3*30
$GPRMC,204137.000,A,5214.8127,N,00004.2147,W,28.77,107.03,170911,,,A*45
$GPVTG,107.03,T,,,28.77,N,53.29,K,A*72
$GPGGA,204138.000,5214.8091,N,00004.2030,W,1,05,02.4,604.0,M,45.0,M,,*75
$GPGSV,2,1,08,03,89,276,30,07,63,181,22,11,,,,12,,,*79
$GPGSV,2.2,08,18,73,111,35,19,33,057,27,22,57,173,37,27,,,*40
$GPRMC,204138.000,A,5214.8091,N,00004.2030,W,28.44,108.17,170911,,,A*4D
$GPVTG,108.17,T,,,28.44,N,52.67,K,A*73
$GPGGA,204139.000,5214.8054,N,00004.1916,W,1,05,02.4,608.2,M,45.0,M,,*7D
$GPRMC,204139.000,A,5214.8054,N,00004.1916,W,28.44,108.17,170911,,,A*4B
$GPVTG,108.17,T,,,28.44,N,52.67,K,A*73
$GPGGA,204140.000,5214.8017,N,00004.1803,W,1,05,02.4,612.5,M,45.0,M,,*7D
$GPGSA,A,3,03,07,18,19,22,,,,,,,,3.3,2.4,2.3*30
$GPRMC,204140.000,A,5214.8017,N,00004.1803,W,28.44,108.17,170911,,,A*47
$GPVTG,108.17,T,,,28.44,N,52.67,K,A*73
$GPGGA,204141.000,5214.7979,N,00004.1689,W,1,05,02.4,616.7,M,45.0,M,,*78
$GPGSV,2,1,08,03,89,276,30,07,63,181,22,11,,,,12,,,*79
$GPGSV,2.2,08,18,73,111,35,19,33,057,27,22,57,173,37,27,,,*40
$GPRMC,204141.000,A,5214.7979,N,00004.1689,W,28.44,108.17,170911,,,A*44
$GPVTG,108.17,T,,,28.44,N,52.67,K,A*73
$GPGGA,204142.000,5214.7942,N,00004.1575,W,1,05,02.4,620.9,M,45.0,M,,*78
$GPRMC,204142.000,A,5214.7942,N,00004.1575,W,28.44,108.17,170911,,,A*4F
$GPVTG,108.17,T,,,28.44,N,52.67,K,A*73
$GPGGA,204143.000,5214.7905,N,00004.1462,W,1,05,02.4,625.2,M,45.0,M,,*73
$GPGSA,A,3,03,07,18,19,22,,,,,,,,3.3,2.4,2.3*30
$GPRMC,204143.000,A,5214.7905,N,00004.1462,W,28.44,108.17,170911,,,A*4A
$GPVTG,108.17,T,,,28.44,N,52.67,K,A*73
$GPGGA,204144.000,5214.7867,N,00004.1348,W,1,05,02.4,629.4,M,45.0,M,,*74
$GPGSV,2,1,08,03,89,276,30,07,63,181,22,11,,,,12,,,*79
$GPGSV,2.2,08,18,73,111,35,19,33,057,27,22,57,173,37,27,,,*40
$GPRMC,204144.000,A,5214.7867,N,00004.1348,W,28.44,108.17,170911,,,A*47
$GPVTG,108.17,T,,,28.44,N,52.67,K,A*73
$GPGGA,204145.000,5214.7830,N,00004.1234,W,1,05,02.4,633.6,M,45.0,M,,*74
$GPRMC,204145.000,A,5214.7830,N,00004.1234,W,28.44,108.17,170911,,,A*4E
$GPVTG,108.17,T,,,28.44,N,52.67,K,A*73
$GPGGA,204146.000,5214.7793,N,00004.1121,W,1,05,02.4,637.9,M,45.0,M,,*7D
$GPGSA,A,3,03,07,18,19,22,,,,,,,,3.3,2.4,2.3*30
$GPRMC,204146.000,A,5214.7793,N,00004.1121,W,28.44,108.17,170911,,,A*4C
$GPVTG,108.17,T,,,28.44,N,52.67,K,A*73
$GPGGA,204147.000,5214.7755,N,00004.1007,W,1,05,02.4,642.1,M,45.0,M,,*79
$GPGSV,2,1,08,03,89,276,30,07,63,181,22,11,,,,12,,,*79
$GPGSV,2.2,08,18,73,111,35,19,33,057,27,22,57,173,37,27,,,*40
$GPRMC,204147.000,A,5214.7755,N,00004.1007,W,28.44,108.17,170911,,,A*42
$GPVTG,108.17,T,,,28.44,N,52.67,K,A*73
$GPGGA,204148.000,5214.7718,N,00004.0894,W,1,05,02.4,646.4,M,45.0,M,,*7D
$GPRMC,204148.000,A,5214.7718,N,00004.0894,W,28.44,108.17,170911,,,A*47
$GPVTG,108.17,T,,,28.44,N,52.67,K,A*73
$GPGGA,204149.000,5214.7681,N,00004.0780,W,1,05,02.4,650.6,M,45.0,M,,*72
$GPGSA,A,3,03,07,18,19,22,,,,,,,,3.3,2.4,2.3*30
$GPRMC,204149.000,A,5214.7681,N,00004.0780,W,28.44,108.17,170911,,,A*4D
$GPVTG,108.17,T,,,28.44,N,52.67,K,A*73
$GPGGA,204150.000,5214.7644,N,00004.0666,W,1,05,02.4,654.8,M,45.0,M,,*70
$GPGSV,2,1,08,03,89,276,30,07,63,181,22,11,,,,12,,,*79
$GPGSV,2.2,08,18,73,111,35,19,33,057,27,22,57,173,37,27,,,*40
$GPRMC,204150.000,A,5214.7644,N,00004.0666,W,28.44,108.17,170911,,,A*45
$GPVTG,108.17,T,,,28.44,N,52.67,K,A*73
$GPGGA,204151.000,5214.7606,N,00004.0553,W,1,05,02.4,659.1,M,45.0,M,,*76
$GPRMC,204151.000,A,5214.7606,N,00004.0553,W,28.44,108.17,170911,,,A*47
$GPVTG,108.17,T,,,28.44,N,52.67,K,A*73
$GPGGA,204152.000,5214.7569,N,00004.0439,W,1,05,02.4,663.3,M,45.0,M,,*79
$GPGSA,A,3,03,07,18,19,22,,,,,,,,3.3,2.4,2.3*30
$GPRMC,204152.000,A,5214.7569,N,00004.0439,W,28.44,108.17,170911,,,A*43
$GPVTG,108.17,T,,,28.44,N,52.67,K,A*73
$GPGGA,204153.000,5214.7532,N,00004.0325,W,1,05,02.4,667.5,M,45.0,M,,*7E
$GPGSV,2,1,08,03,89,276,30,07,63,181,22,11,,,,12,,,*79
$GPGSV,2.2,08,18,73,111,35,19,33,057,27,22,57,173,37,27,,,*40
$GPRMC,204153.000,A,5214.7532,N,00004.0325,W,28.44,108.17,170911,,,A*46
$GPVTG,108.17,T,,,28.44,N,52.67,K,A*73
$GPGGA,204154.000,5214.7494,N,00004.0212,W,1,05,02.4,671.8,M,45.0,M,,*7B
$GPRMC,204154.000,A,5214.7494,N,00004.0212,W,28.44,108.17,170911,,,A*49
$GPVTG,108.17,T,,,28.44,N,52.67,K,A*73
$GPGGA,204155.000,5214.7457,N,00004.0098,W,1,05,02.4,676.0,M,45.0,M,,*7A
$GPGSA,A,3,03,07,18,19,22,,,,,,,,3.3,2.4,2.3*30
$GPRMC,204155.000,A,5214.7457,N,00004.0098,W,28.18,106.51,170911,,,A*42
$GPVTG,106.51,T,,,28.18,N,52.19,K,A*7F
$GPGGA,204156.000,5214.7423,N,00003.9983,W,1,05,02.4,680.2,M,45.0,M,,*7C
$GPGSV,2,1,08,03,89,276,30,07,63,181,22,11,,,,12,,,*79
$GPGSV,2.2,08,18,73,111,35,19,33,057,27,22,57,173,37,27,,,*40
$GPRMC,204156.000,A,5214.7423,N,00003.9983,W,28.18,106.51,170911,,,A*4F
$GPVTG,106.51,T,,,28.18,N,52.19,K,A*7F
$GPGGA,204157.000,5214.7389,N,00003.9868,W,1,05,02.4,684.3,M,45.0,M,,*7B
$GPRMC,204157.000,A,5214.7389,N,00003.9868,W,28.18,106.51,170911,,,A*4D
$GPVTG,106.51,T,,,28.18,N,52.19,K,A*7F
$GPGGA,204158.000,5214.7355,N,00003.9753,W,1,05,02.4,688.5,M,45.0,M,,*78
$GPGSA,A,3,03,07,18,19,22,,,,,,,,3.3,2.4,2.3*30
$GPRMC,204158.000,A,5214.7355,N,00003.9753,W,28.18,106.51,170911,,,A*44
$GPVTG,106.51,T,,,28.18,N,52.19,K,A*7F
$GPGGA,204159.000,5214.7321,N,00003.9638,W,1,05,02.4,692.7,M,45.0,M,,*7F
$GPGSV,2,1,08,03,89,276,30,07,63,181,22,11,,,,12,,,*79
$GPGSV,2.2,08,18,73,111,35,19,33,057,27,22,57,173,37,27,,,*40
$GPRMC,204159.000,A,5214.7321,N,00003.9638,W,28.18,106.51,170911,,,A*4A
$GPVTG,106.51,T,,,28.18,N,52.19,K,A*7F
$GPGGA,204200.000,5214.7287,N,00003.9523,W,1,05,02.4,696.8,M,45.0,M,,*7F
$GPRMC,204200.000,A,5214.7287,N,00003.9523,W,28.18,106.51,170911,,,A*41
$GPVTG,106.51,T,,,28.18,N,52.19,K,A*7F
$GPGGA,204201.000,5214.7253,N,00003.9408,W,1,05,02.4,701.0,M,45.0,M,,*78
$GPGSA,A,3,03,07,18,19,22,,,,,,,,3.3,2.4,2.3*30
$GPRMC,204201.000,A,5214.7253,N,00003.9408,W,28.18,106.51,170911,,,A*41
$GPVTG,106.51,T,,,28.18,N,52.19,K,A*7F
$GPGGA,204202.000,5214.7219,N,00003.9293,W,1,05,02.4,705.2,M,45.0,M,,*77
$GPGSV,2,1,08,03,89,276,30,07,63,181,22,11,,,,12,,,*79
$GPGSV,2.2,08,18,73,111,35,19,33,057,27,22,57,173,37,27,,,*40
$GPRMC,204202.000,A,5214.7219,N,00003.9293,W,28.18,106.51,170911,,,A*48
$GPVTG,106.51,T,,,28.18,N,52.19,K,A*7F
$GPGGA,204203.000,5214.7184,N,00003.9178,W,1,05,02.4,709.3,M,45.0,M,,*7A
$GPRMC,204203.000,A,5214.7184,N,00003.9178,W,28.18,106.51,170911,,,A*48
$GPVTG,106.51,T,,,28.18,N,52.19,K,A*7F
$GPGGA,204204.000,5214.7150,N,00003.9063,W,1,05,02.4,713.5,M,45.0,M,,*72
$GPGSA,A,3,03,07,18,19,22,,,,,,,,3.3,2.4,2.3*30
$GPRMC,204204.000,A,5214.7150,N,00003.9063,W,28.18,106.51,170911,,,A*4D
$GPVTG,106.51,T,,,28.18,N,52.19,K,A*7F
$GPGGA,204205.000,5214.7116,N,00003.8948,W,1,05,02.4,717.7,M,45.0,M,,*76
$GPGSV,2,1,08,03,89,276,30,07,63,181,22,11,,,,12,,,*79
$GPGSV,2.2,08,18,73,111,35,19,33,057,27,22,57,173,37,27,,,*40
$GPRMC,204205.000,A,5214.7116,N,00003.8948,W,28.18,106.51,170911,,,A*4F
$GPVTG,106.51,T,,,28.18,N,52.19,K,A*7F
$GPGGA,204206.000,5214.7082,N,00003.8833,W,1,05,02.4,721.8,M,45.0,M,,*7E
$GPRMC,204206.000,A,5214.7082,N,00003.8833,W,28.18,106.51,170911,,,A*4D
$GPVTG,106.51,T,,,28.18,N,52.19,K,A*7F
$GPGGA,204207.000,5214.7048,N,00003.8718,W,1,05,02.4,726.0,M,45.0,M,,*70
$GPGSA,A,3,03,07,18,19,22,,,,,,,,3.3,2.4,2.3*30
$GPRMC,204207.000,A,5214.7048,N,00003.8718,W,28.18,106.51,170911,,,A*4C
$GPVTG,106.51,T,,,28.18,N,52.19,K,A*7F
$GPGGA,204208.000,5214.7014,N,00003.8603,W,1,05,02.4,730.2,M,45.0,M,,*78
$GPGSV,2,1,08,03,89,276,30,07,63,181,22,11,,,,12,,,*79
$GPGSV,2.2,08,18,73,111,35,19,33,057,27,22,57,173,37,27,,,*40
$GPRMC,204208.000,A,5214.7014,N,00003.8603,W,28.18,106.51,170911,,,A*41
$GPVTG,106.51,T,,,28.18,N,52.19,K,A*7F
$GPGGA,204209.000,5214.6980,N,00003.8488,W,1,05,02.4,734.3,M,45.0,M,,*78
$GPRMC,204209.000,A,5214.6980,N,00003.8488,W,28.18,106.51,170911,,,A*44
$GPVTG,106.51,T,,,28.18,N,52.19,K,A*7F
$GPGGA,204210.000,5214.6946,N,00003.8373,W,1,05,02.4,738.5,M,45.0,M,,*73
$GPGSA,A,3,03,07,18,19,22,,,,,,,,3.3,2.4,2.3*30
$GPRMC,204210.000,A,5214.6946,N,00003.8373,W,28.18,106.51,170911,,,A*45
$GPVTG,106.51,T,,,28.18,N,52.19,K,A*7F
$GPGGA,204211.000,5214.6912,N,00003.8258,W,1,05,02.4,742.7,M,45.0,M,,*74
$GPGSV,2,1,08,03,89,276,30,07,63,181,22,11,,,,12,,,*79
$GPGSV,2.2,08,18,73,111,35,19,33,057,27,22,57,173,37,27,,,*40
$GPRMC,204211.000,A,5214.6912,N,00003.8258,W,28.18,106.51,170911,,,A*4D
$GPVTG,106.51,T,,,28.18,N,52.19,K,A*7F
$GPGGA,204212.000,5214.6878,N,00003.8143,W,1,05,02.4,746.8,M,45.0,M,,*78
$GPRMC,204212.000,A,5214.6878,N,00003.8143,W,28.18,106.51,170911,,,A*4A
$GPVTG,106.51,T,,,28.18,N,52.19,K,A*7F
$GPGGA,204213.000,5214.6844,N,00003.8028,W,1,05,02.4,751.0,M,45.0,M,,*74
$GPGSA,A,3,03,07,18,19,22,,,,,,,,3.3,2.4,2.3*30
$GPRMC,204213.000,A,5214.6844,N,00003.8028,W,30.12,108.40,170911,,,A*45
$GPVTG,108.40,T,,,30.12,N,55.79,K,A*73
$GPGGA,204214.000,5214.6804,N,00003.7908,W,1,05,02.4,755.2,M,45.0,M,,*75
$GPGSV,2,1,08,03,89,276,30,07,63,181,22,11,,,,12,,,*79
$GPGSV,2.2,08,18,73,111,35,19,33,057,27,22,57,173,37,27,,,*40
$GPRMC,204214.000,A,5214.6804,N,00003.7908,W,30.12,108.40,170911,,,A*42
$GPVTG,108.40,T,,,30.12,N,55.79,K,A*73
$GPGGA,204215.000,5214.6764,N,00003.7788,W,1,05,02.4,759.3,M,45.0,M,,*76
$GPRMC,204215.000,A,5214.6764,N,00003.7788,W,30.12,108.40,170911,,,A*4C
$GPVTG,108.40,T,,,30.12,N,55.79,K,A*73
$GPGGA,204216.000,5214.6724,N,00003.7668,W,1,05,02.4,763.5,M,45.0,M,,*71
$GPGSA,A,3,03,07,18,19,22,,,,,,,,3.3,2.4,2.3*30
$GPRMC,204216.000,A,5214.6724,N,00003.7668,W,30.12,108.40,170911,,,A*44
$GPVTG,108.40,T,,,30.12,N,55.79,K,A*73
$GPGGA,204217.000,5214.6684,N,00003.7548,W,1,05,02.4,767.7,M,45.0,M,,*7C
$GPGSV,2,1,08,03,89,276,30,07,63,181,22,11,,,,12,,,*79
$GPGSV,2.2,08,18,73,111,35,19,33,057,27,22,57,173,37,27,,,*40
$GPRMC,204217.000,A,5214.6684,N,00003.7548,W,30.12,108.40,170911,,,A*4F
$GPVTG,108.40,T,,,30.12,N,55.79,K,A*73
$GPGGA,204218.000,5214.6644,N,00003.7428,W,1,05,02.4,771.8,M,45.0,M,,*70
$GPRMC,204218.000,A,5214.6644,N,00003.7428,W,30.12,108.40,170911,,,A*4B
$GPVTG,108.40,T,,,30.12,N,55.79,K,A*73
$GPGGA,204219.000,5214.6604,N,00003.7308,W,1,05,02.4,776.0,M,45.0,M,,*7F
$GPGSA,A,3,03,07,18,19,22,,,,,,,,3.3,2.4,2.3*30
$GPRMC,204219.000,A,5214.6604,N,00003.7308,W,30.12,108.40,170911,,,A*4B
$GPVTG,108.40,T,,,30.12,N,55.79,K,A*73
$GPGGA,204220.000,5214.6564,N,00003.7188,W,1,05,02.4,780.2,M,45.0,M,,*71
$GPGSV,2,1,08,03,89,276,30,07,63,181,22,11,,,,12,,,*79
$GPGSV,2.2,08,18,73,111,35,19,33,057,27,22,57,173,37,27,,,*40
$GPRMC,204220.000,A,5214.6564,N,00003.7188,W,30.12,108.40,170911,,,A*4E
$GPVTG,108.40,T,,,30.12,N,55.79,K,A*73
$GPGGA,204221.000,5214.6524,N,00003.7068,W,1,05,02.4,784.3,M,45.0,M,,*7E
$GPRMC,204221.000,A,5214.6524,N,00003.7068,W,30.12,108.40,170911,,,A*44
$GPVTG,108.40,T,,,30.12,N,55.79,K,A*73
$GPGGA,204222.000,5214.6484,N,00003.6948,W,1,05,02.4,788.5,M,45.0,M,,*76
$GPGSA,A,3,03,07,18,19,22,,,,,,,,3.3,2.4,2.3*30
$GPRMC,204222.000,A,5214.6484,N,00003.6948,W,30.12,108.40,170911,,,A*46
$GPVTG,108.40,T,,,30.12,N,55.79,K,A*73
$GPGGA,204223.000,5214.6444,N,00003.6828,W,1,05,02.4,792.7,M,45.0,M,,*75
$GPGSV,2,1,08,03,89,276,30,07,63,181,22,11,,,,12,,,*79
$GPGSV,2.2,08,18,73,111,35,19,33,057,27,22,57,173,37,27,,,*40
$GPRMC,204223.000,A,5214.6444,N,00003.6828,W,30.12,108.40,170911,,,A*4C
$GPVTG,108.40,T,,,30.12,N,55.79,K,A*73
$GPGGA,204224.000,5214.6405,N,00003.6708,W,1,05,02.4,796.8,M,45.0,M,,*71
$GPRMC,204224.000,A,5214.6405,N,00003.6708,W,30.12,108.40,170911,,,A*43
$GPVTG,108.40,T,,,30.12,N,55.79,K,A*73
$GPGGA,204225.000,5214.6365,N,00003.6588,W,1,05,02.4,801.0,M,45.0,M,,*72
$GPGSA,A,3,03,07,18,19,22,,,,,,,,3.3,2.4,2.3*30
$GPRMC,204225.000,A,5214.6365,N,00003.6588,W,30.12,108.40,170911,,,A*49
$GPVTG,108.40,T,,,30.12,N,55.79,K,A*73
$GPGGA,204226.000,5214.6325,N,00003.6468,W,1,05,02.4,805.2,M,45.0,M,,*7C
$GPGSV,2,1,08,03,89,276,30,07,63,181,22,11,,,,12,,,*79
$GPGSV,2.2,08,18,73,111,35,19,33,057,27,22,57,173,37,27,,,*40
$GPRMC,204226.000,A,5214.6325,N,00003.6468,W,30.12,108.40,170911,,,A*41
$GPVTG,108.40,T,,,30.12,N,55.79,K,A*73
$GPGGA,204227.000,5214.6285,N,00003.6348,W,1,05,02.4,809.3,M,45.0,M,,*7E
$GPRMC,204227.000,A,5214.6285,N,00003.6348,W,30.12,108.40,170911,,,A*4E
$GPVTG,108.40,T,,,30.12,N,55.79,K,A*73
$GPGGA,204228.000,5214.6245,N,00003.6228,W,1,05,02.4,813.5,M,45.0,M,,*77
$GPGSA,A,3,03,07,18,19,22,,,,,,,,3.3,2.4,2.3*30
$GPRMC,204228.000,A,5214.6245,N,00003.6228,W,30.12,108.40,170911,,,A*4A
$GPVTG,108.40,T,,,30.12,N,55.79,K,A*73
$GPGGA,204229.000,5214.6205,N,00003.6108,W,1,05,02.4,817.7,M,45.0,M,,*75
$GPGSV,2,1,08,03,89,276,30,07,63,181,22,11,,,,12,,,*79
$GPGSV,2.2,08,18,73,111,35,19,33,057,27,22,57,173,37,27,,,*40
$GPRMC,204229.000,A,5214.6205,N,00003.6108,W,30.12,108.40,170911,,,A*4E
$GPVTG,108.40,T,,,30.12,N,55.79,K,A*73
$GPGGA,204230.000,5214.6165,N,00003.5988,W,1,05,02.4,821.8,M,45.0,M,,*71
$GPRMC,204230.000,A,5214.6165,N,00003.5988,W,30.12,108.40,170911,,,A*40
$GPVTG,108.40,T,,,30.12,N,55.79,K,A*73
$GPGGA,204231.000,5214.6125,N,00003.5868,W,1,05,02.4,826.0,M,45.0,M,,*74
$GPGSA,A,3,03,07,18,19,22,,,,,,,,3.3,2.4,2.3*30
$GPRMC,204231.000,A,5214.6125,N,00003.5868,W,26.06,108.34,170911,,,A*4B
$GPVTG,108.34,T,,,26.06,N,48.27,K,A*75
$GPGGA,204232.000,5214.6091,N,00003.5764,W,1,05,02.4,830.3,M,45.0,M,,*7E
$GPGSV,2,1,08,03,89,276,30,07,63,181,22,11,,,,12,,,*79
$GPGSV,2.2,08,18,73,111,35,19,33,057,27,22,57,173,37,27,,,*40
$GPRMC,204232.000,A,5214.6091,N,00003.5764,W,26.06,108.34,170911,,,A*45
$GPVTG,108.34,T,,,26.06,N,48.27,K,A*75
$GPGGA,204233.000,5214.6056,N,00003.5660,W,1,05,02.4,834.5,M,45.0,M,,*73
$GPRMC,204233.000,A,5214.6056,N,00003.5660,W,26.06,108.34,170911,,,A*4A
$GPVTG,108.34,T,,,26.06,N,48.27,K,A*75
$GPGGA,204234.000,5214.6022,N,00003.5556,W,1,05,02.4,838.8,M,45.0,M,,*70
$GPGSA,A,3,03,07,18,19,22,,,,,,,,3.3,2.4,2.3*30
$GPRMC,204234.000,A,5214.6022,N,00003.5556,W,26.06,108.34,170911,,,A*48
$GPVTG,108.34,T,,,26.06,N,48.27,K,A*75
$GPGGA,204235.000,5214.5987,N,00003.5452,W,1,05,02.4,843.1,M,45.0,M,,*74
$GPGSV,2,1,08,03,89,276,30,07,63,181,22,11,,,,12,,,*79
$GPGSV,2.2,08,18,73,111,35,19,33,057,27,22,57,173,37,27,,,*40
$GPRMC,204235.000,A,5214.5987,N,00003.5452,W,26.06,108.34,170911,,,A*49
$GPVTG,108.34,T,,,26.06,N,48.27,K,A*75
$GPGGA,204236.000,5214.5953,N,00003.5348,W,1,05,02.4,847.4,M,45.0,M,,*73
$GPRMC,204236.000,A,5214.5953,N,00003.5348,W,26.06,108.34,170911,,,A*4F
$GPVTG,108.34,T,,,26.06,N,48.27,K,A*75
$GPGGA,204237.000,5214.5918,N,00003.5245,W,1,05,02.4,851.6,M,45.0,M,,*74
$GPGSA,A,3,03,07,18,19,22,,,,,,,,3.3,2.4,2.3*30
$GPRMC,204237.000,A,5214.5918,N,00003.5245,W,26.06,108.34,170911,,,A*4D
$GPVTG,108.34,T,,,26.06,N,48.27,K,A*75
$GPGGA,204238.000,5214.5884,N,00003.5141,W,1,05,02.4,855.9,M,45.0,M,,*73
$GPGSV,2,1,08,03,89,276,30,07,63,181,22,11,,,,12,,,*79
$GPGSV,2.2,08,18,73,111,35,19,33,057,27,22,57,173,37,27,,,*40
$GPRMC,204238.000,A,5214.5884,N,00003.5141,W,26.06,108.34,170911,,,A*41
$GPVTG,108.34,T,,,26.06,N,48.27,K,A*75
$GPGGA,204239.000,5214.5850,N,00003.5037,W,1,05,02.4,860.2,M,45.0,M,,*76
$GPRMC,204239.000,A,5214.5850,N,00003.5037,W,26.06,108.34,170911,,,A*49
$GPVTG,108.34,T,,,26.06,N,48.27,K,A*75
$GPGGA,204240.000,5214.5815,N,00003.4933,W,1,05,02.4,864.5,M,45.0,M,,*76
$GPGSA,A,3,03,07,18,19,22,,,,,,,,3.3,2.4,2.3*30
$GPRMC,204240.000,A,5214.5815,N,00003.4933,W,26.06,108.34,170911,,,A*4A
$GPVTG,108.34,T,,,26.06,N,48.27,K,A*75
$GPGGA,204241.000,5214.5781,N,00003.4829,W,1,05,02.4,868.7,M,45.0,M,,*71
$GPGSV,2,1,08,03,89,276,30,07,63,181,22,11,,,,12,,,*79
$GPGSV,2.2,08,18,73,111,35,19,33,057,27,22,57,173,37,27,,,*40
$GPRMC,204241.000,A,5214.5781,N,00003.4829,W,26.06,108.34,170911,,,A*43
$GPVTG,108.34,T,,,26.06,N,48.27,K,A*75
$GPGGA,204242.000,5214.5746,N,00003.4725,W,1,05,02.4,873.0,M,45.0,M,,*77
$GPRMC,204242.000,A,5214.5746,N,00003.4725,W,26.06,108.34,170911,,,A*48
$GPVTG,108.34,T,,,26.06,N,48.27,K,A*75
$GPGGA,204243.000,5214.5712,N,00003.4621,W,1,05,02.4,877.3,M,45.0,M,,*75
$GPGSA,A,3,03,07,18,19,22,,,,,,,,3.3,2.4,2.3*30
$GPRMC,204243.000,A,5214.5712,N,00003.4621,W,26.06,108.34,170911,,,A*4D
$GPVTG,108.34,T,,,26.06,N,48.27,K,A*75
$GPGGA,204244.000,5214.5677,N,00003.4517,W,1,05,02.4,881.5,M,45.0,M,,*79
$GPGSV,2,1,08,03,89,276,30,07,63,181,22,11,,,,12,,,*79
$GPGSV,2.2,08,18,73,111,35,19,33,057,27,22,57,173,37,27,,,*40
$GPRMC,204244.000,A,5214.5677,N,00003.4517,W,26.06,108.34,170911,,,A*4E
$GPVTG,108.34,T,,,26.06,N,48.27,K,A*75
$GPGGA,204245.000,5214.5643,N,00003.4413,W,1,05,02.4,885.8,M,45.0,M,,*73
$GPRMC,204245.000,A,5214.5643,N,00003.4413,W,26.06,108.34,170911,,,A*4D
$GPVTG,108.34,T,,,26.06,N,48.27,K,A*75
$GPGGA,204246.000,5214.5608,N,00003.4309,W,1,05,02.4,890.1,M,45.0,M,,*7E
$GPGSA,A,3,03,07,18,19,22,,,,,,,,3.3,2.4,2.3*30
$GPRMC,204246.000,A,5214.5608,N,00003.4309,W,26.06,108.34,170911,,,A*4D
$GPVTG,108.34,T,,,26.06,N,48.27,K,A*75
$GPGGA,204247.000,5214.5574,N,00003.4205,W,1,05,02.4,894.4,M,45.0,M,,*7B
$GPGSV,2,1,08,03,89,276,30,07,63,181,22,11,,,,12,,,*79
$GPGSV,2.2,08,18,73,111,35,19,33,057,27,22,57,173,37,27,,,*40
$GPRMC,204247.000,A,5214.5574,N,00003.4205,W,26.06,108.34,170911,,,A*49
$GPVTG,108.34,T,,,26.06,N,48.27,K,A*75
$GPGGA,204248.000,5214.5540,N,00003.4102,W,1,05,02.4,898.6,M,45.0,M,,*79
$GPRMC,204248.000,A,5214.5540,N,00003.4102,W,26.06,108.34,170911,,,A*45
$GPVTG,108.34,T,,,26.06,N,48.27,K,A*75
$GPGGA,204249.000,5214.5505,N,00003.3998,W,1,05,02.4,902.9,M,45.0,M,,*78
$GPGSA,A,3,03,07,18,19,22,,,,,,,,3.3,2.4,2.3*30
$GPRMC,204249.000,A,5214.5505,N,00003.3998,W,26.06,108.34,170911,,,A*49
$GPVTG,108.34,T,,,26.06,N,48.27,K,A*75
$GPGGA,204250.000,5214.5471,N,00003.3894,W,1,05,02.4,907.2,M,45.0,M,,*71
$GPGSV,2,1,08,03,89,276,30,07,63,181,22,11,,,,12,,,*79
$GPGSV,2.2,08,18,73,111,35,19,33,057,27,22,57,173,37,27,,,*40
$GPRMC,204250.000,A,5214.5471,N,00003.3894,W,26.06,108.34,170911,,,A*4E
$GPVTG,108.34,T,,,26.06,N,48.27,K,A*75
$GPGGA,204251.000,5214.5436,N,00003.3790,W,1,05,02.4,911.5,M,45.0,M,,*78
$GPRMC,204251.000,A,5214.5436,N,00003.3790,W,26.06,108.34,170911,,,A*47
$GPVTG,108.34,T,,,26.06,N,48.27,K,A*75
$GPGGA,204252.000,5214.5402,N,00003.3686,W,1,05,02.4,915.7,M,45.0,M,,*7C
$GPGSA,A,3,03,07,18,19,22,,,,,,,,3.3,2.4,2.3*30
$GPRMC,204252.000,A,5214.5402,N,00003.3686,W,26.06,108.34,170911,,,A*45
$GPVTG,108.34,T,,,26.06,N,48.27,K,A*75
$GPGGA,204253.000,5214.5367,N,00003.3582,W,1,05,02.4,920.0,M,45.0,M,,*7F
$GPGSV,2,1,08,03,89,276,30,07,63,181,22,11,,,,12,,,*79
$GPGSV,2.2,08,18,73,111,35,19,33,057,27,22,57,173,37,27,,,*40
$GPRMC,204253.000,A,5214.5367,N,00003.3582,W,28.85,106.92,170911,,,A*40
$GPVTG,106.92,T,,,28.85,N,53.44,K,A*7D
$GPGGA,204254.000,5214.5332,N,00003.3465,W,1,05,02.4,924.2,M,45.0,M,,*76
$GPRMC,204254.000,A,5214.5332,N,00003.3465,W,28.85,106.92,170911,,,A*4F
$GPVTG,106.92,T,,,28.85,N,53.44,K,A*7D
$GPGGA,204255.000,5214.5296,N,00003.3348,W,1,05,02.4,928.5,M,45.0,M,,*7B
$GPGSA,A,3,03,07,18,19,22,,,,,,,,3.3,2.4,2.3*30
$GPRMC,204255.000,A,5214.5296,N,00003.3348,W,28.85,106.92,170911,,,A*49
$GPVTG,106.92,T,,,28.85,N,53.44,K,A*7D
$GPGGA,204256.000,5214.5261,N,00003.3231,W,1,05,02.4,932.7,M,45.0,M,,*76
$GPGSV,2,1,08,03,89,276,30,07,63,181,22,11,,,,12,,,*79
$GPGSV,2.2,08,18,73,111,35,19,33,057,27,22,57,173,37,27,,,*40
$GPRMC,204256.000,A,5214.5261,N,00003.3231,W,28.85,106.92,170911,,,A*4D
$GPVTG,106.92,T,,,28.85,N,53.44,K,A*7D
$GPGGA,204257.000,5214.5225,N,00003.3113,W,1,05,02.4,937.0,M,45.0,M,,*76
$GPRMC,204257.000,A,5214.5225,N,00003.3113,W,28.85,106.92,170911,,,A*4F
$GPVTG,106.92,T,,,28.85,N,53.44,K,A*7D
$GPGGA,204258.000,5214.5189,N,00003.2996,W,1,05,02.4,941.2,M,45.0,M,,*7B
$GPGSA,A,3,03,07,18,19,22,,,,,,,,3.3,2.4,2.3*30
$GPRMC,204258.000,A,5214.5189,N,00003.2996,W,28.85,106.92,170911,,,A*41
$GPVTG,106.92,T,,,28.85,N,53.44,K,A*7D
$GPGGA,204259.000,5214.5154,N,00003.2879,W,1,05,02.4,945.4,M,45.0,M,,*78
$GPGSV,2,1,08,03,89,276,30,07,63,181,22,11,,,,12,,,*79
$GPGSV,2.2,08,18,73,111,35,19,33,057,27,22,57,173,37,27,,,*40
$GPRMC,204259.000,A,5214.5154,N,00003.2879,W,28.85,106.92,170911,,,A*40
$GPVTG,106.92,T,,,28.85,N,53.44,K,A*7D
$GPGGA,204300.000,5214.5118,N,00003.2762,W,1,05,02.4,949.7,M,45.0,M,,*77
$GPRMC,204300.000,A,5214.5118,N,00003.2762,W,28.85,106.92,170911,,,A*40
$GPVTG,106.92,T,,,28.85,N,53.44,K,A*7D
$GPGGA,204301.000,5214.5082,N,00003.2645,W,1,05,02.4,953.9,M,45.0,M,,*75
$GPGSA,A,3,03,07,18,19,22,,,,,,,,3.3,2.4,2.3*30
$GPRMC,204301.000,A,5214.5082,N,00003.2645,W,28.85,106.92,170911,,,A*47
$GPVTG,106.92,T,,,28.85,N,53.44,K,A*7D
$GPGGA,204302.000,5214.5047,N,00003.2528,W,1,05,02.4,958.1,M,45.0,M,,*74
$GPGSV,2,1,08,03,89,276,30,07,63,181,22,11,,,,12,,,*79
$GPGSV,2.2,08,18,73,111,35,19,33,057,27,22,57,173,37,27,,,*40
$GPRMC,204302.000,A,5214.5047,N,00003.2528,W,28.85,106.92,170911,,,A*45
$GPVTG,106.92,T,,,28.85,N,53.44,K,A*7D
$GPGGA,204303.000,5214.5011,N,00003.2411,W,1,05,02.4,962.4,M,45.0,M,,*71
$GPRMC,204303.000,A,5214.5011,N,00003.2411,W,28.85,106.92,170911,,,A*4C
$GPVTG,106.92,T,,,28.85,N,53.44,K,A*7D
$GPGGA,204304.000,5214.4975,N,00003.2293,W,1,05,02.4,966.6,M,45.0,M,,*76
$GPGSA,A,3,03,07,18,19,22,,,,,,,,3.3,2.4,2.3*30
$GPRMC,204304.000,A,5214.4975,N,00003.2293,W,28.85,106.92,170911,,,A*4D
$GPVTG,106.92,T,,,28.85,N,53.44,K,A*7D
$GPGGA,204305.000,5214.4940,N,00003.2176,W,1,05,02.4,970.9,M,45.0,M,,*71
$GPGSV,2,1,08,03,89,276,30,07,63,181,22,11,,,,12,,,*79
$GPGSV,2.2,08,18,73,111,35,19,33,057,27,22,57,173,37,27,,,*40
$GPRMC,204305.000,A,5214.4940,N,00003.2176,W,28.85,106.92,170911,,,A*42
$GPVTG,106.92,T,,,28.85,N,53.44,K,A*7D
$GPGGA,204306.000,5214.4904,N,00003.2059,W,1,05,02.4,975.1,M,45.0,M,,*73
$GPRMC,204306.000,A,5214.4904,N,00003.2059,W,28.85,106.92,170911,,,A*4D
$GPVTG,106.92,T,,,28.85,N,53.44,K,A*7D
$GPGGA,204307.000,5214.4868,N,00003.1942,W,1,05,02.4,979.3,M,45.0,M,,*77
$GPGSA,A,3,03,07,18,19,22,,,,,,,,3.3,2.4,2.3*30
$GPRMC,204307.000,A,5214.4868,N,00003.1942,W,28.85,106.92,170911,,,A*47
$GPVTG,106.92,T,,,28.85,N,53.44,K,A*7D
$GPGGA,204308.000,5214.4833,N,00003.1825,W,1,05,02.4,983.6,M,45.0,M,,*76
$GPGSV,2,1,08,03,89,276,30,07,63,181,22,11,,,,12,,,*79
$GPGSV,2.2,08,18,73,111,35,19,33,057,27,22,57,173,37,27,,,*40
$GPRMC,204308.000,A,5214.4833,N,00003.1825,W,28.85,106.92,170911,,,A*46
$GPVTG,106.92,T,,,28.85,N,53.44,K,A*7D
$GPGGA,204309.000,5214.4797,N,00003.1708,W,1,05,02.4,987.8,M,45.0,M,,*7C
$GPRMC,204309.000,A,5214.4797,N,00003.1708,W,28.85,106.92,170911,,,A*46
$GPVTG,106.92,T,,,28.85,N,53.44,K,A*7D
$GPGGA,204310.000,5214.4762,N,00003.1591,W,1,05,02.4,992.0,M,45.0,M,,*70
$GPGSA,A,3,03,07,18,19,22,,,,,,,,3.3,2.4,2.3*30
$GPRMC,204310.000,A,5214.4762,N,00003.1591,W,28.85,106.92,170911,,,A*46
$GPVTG,106.92,T,,,28.85,N,53.44,K,A*7D
$GPGGA,204311.000,5214.4726,N,00003.1473,W,1,05,02.4,996.3,M,45.0,M,,*7B
$GPGSV,2,1,08,03,89,276,30,07,63,181,22,11,,,,12,,,*79
$GPGSV,2.2,08,18,73,111,35,19,33,057,27,22,57,173,37,27,,,*40
$GPRMC,204311.000,A,5214.4726,N,00003.1473,W,28.85,106.92,170911,,,A*4A
$GPVTG,106.92,T,,,28.85,N,53.44,K,A*7D
$GPGGA,204312.000,5214.4690,N,00003.1356,W,1,05,02.4,1000.5,M,45.0,M,,*45
$GPRMC,204312.000,A,5214.4690,N,00003.1356,W,28.85,106.92,170911,,,A*45
$GPVTG,106.92,T,,,28.85,N,53.44,K,A*7D
$GPGGA,204313.000,5214.4655,N,00003.1239,W,1,05,02.4,1004.8,M,45.0,M,,*4C
$GPGSA,A,3,03,07,18,19,22,,,,,,,,3.3,2.4,2.3*30
$GPRMC,204313.000,A,5214.4655,N,00003.1239,W,28.85,106.92,170911,,,A*45
$GPVTG,106.92,T,,,28.85,N,53.44,K,A*7D
$GPGGA,204314.000,5214.4619,N,00003.1122,W,1,05,02.4,1009.0,M,45.0,M,,*4F
$GPGSV,2,1,08,03,89,276,30,07,63,181,22,11,,,,12,,,*79
$GPGSV,2.2,08,18,73,111,35,19,33,057,27,22,57,173,37,27,,,*40
$GPRMC,204314.000,A,5214.4619,N,00003.1122,W,24.18,107.23,170911,,,A*40
$GPVTG,107.23,T,,,24.18,N,44.79,K,A*76
$GPGGA,204315.000,5214.4589,N,00003.1024,W,1,05,02.4,1013.2,M,45.0,M,,*4A
$GPRMC,204315.000,A,5214.4589,N,00003.1024,W,24.18,107.23,170911,,,A*4C
$GPVTG,107.23,T,,,24.18,N,44.79,K,A*76
$GPGGA,204316.000,5214.4558,N,00003.0926,W,1,05,02.4,1017.5,M,45.0,M,,*4C
$GPGSA,A,3,03,07,18,19,22,,,,,,,,3.3,2.4,2.3*30
$GPRMC,204316.000,A,5214.4558,N,00003.0926,W,24.18,107.23,170911,,,A*49
$GPVTG,107.23,T,,,24.18,N,44.79,K,A*76
$GPGGA,204317.000,5214.4528,N,00003.0829,W,1,05,02.4,1021.8,M,45.0,M,,*4C
$GPGSV,2,1,08,03,89,276,30,07,63,181,22,11,,,,12,,,*79
$GPGSV,2.2,08,18,73,111,35,19,33,057,27,22,57,173,37,27,,,*40
$GPRMC,204317.000,A,5214.4528,N,00003.0829,W,24.18,107.23,170911,,,A*41
$GPVTG,107.23,T,,,24.18,N,44.79,K,A*76
$GPGGA,204318.000,5214.4498,N,00003.0731,W,1,05,02.4,1026.0,M,45.0,M,,*40
$GPRMC,204318.000,A,5214.4498,N,00003.0731,W,24.18,107.23,170911,,,A*42
$GPVTG,107.23,T,,,24.18,N,44.79,K,A*76
$GPGGA,204319.000,5214.4467,N,00003.0633,W,1,05,02.4,1030.2,M,45.0,M,,*47
$GPGSA,A,3,03,07,18,19,22,,,,,,,,3.3,2.4,2.3*30
$GPRMC,204319.000,A,5214.4467,N,00003.0633,W,24.18,107.23,170911,,,A*40
$GPVTG,107.23,T,,,24.18,N,44.79,K,A*76
$GPGGA,204320.000,5214.4437,N,00003.0535,W,1,05,02.4,1034.5,M,45.0,M,,*4E
$GPGSV,2,1,08,03,89,276,30,07,63,181,22,11,,,,12,,,*79
$GPGSV,2.2,08,18,73,111,35,19,33,057,27,22,57,173,37,27,,,*40
$GPRMC,204320.000,A,5214.4437,N,00003.0535,W,24.18,107.23,170911,,,A*4A
$GPVTG,107.23,T,,,24.18,N,44.79,K,A*76
$GPGGA,204321.000,5214.4407,N,00003.0437,W,1,05,02.4,1038.8,M,45.0,M,,*4E
$GPRMC,204321.000,A,5214.4407,N,00003.0437,W,24.18,107.23,170911,,,A*4B
$GPVTG,107.23,T,,,24.18,N,44.79,K,A*76
$GPGGA,204322.000,5214.4376,N,00003.0340,W,1,05,02.4,1043.0,M,45.0,M,,*4F
$GPGSA,A,3,03,07,18,19,22,,,,,,,,3.3,2.4,2.3*30
$GPRMC,204322.000,A,5214.4376,N,00003.0340,W,24.18,107.23,170911,,,A*4E
$GPVTG,107.23,T,,,24.18,N,44.79,K,A*76
$GPGGA,204323.000,5214.4346,N,00003.0242,W,1,05,02.4,1047.2,M,45.0,M,,*48
$GPGSV,2,1,08,03,89,276,30,07,63,181,22,11,,,,12,,,*79
$GPGSV,2.2,08,18,73,111,35,19,33,057,27,22,57,173,37,27,,,*40
$GPRMC,204323.000,A,5214.4346,N,00003.0242,W,24.18,107.23,170911,,,A*4F
$GPVTG,107.23,T,,,24.18,N,44.79,K,A*76
$GPGGA,204324.000,5214.4316,N,00003.0144,W,1,05,02.4,1051.5,M,45.0,M,,*4F
$GPRMC,204324.000,A,5214.4316,N,00003.0144,W,24.18,107.23,170911,,,A*48
$GPVTG,107.23,T,,,24.18,N,44.79,K,A*76
$GPGGA,204325.000,5214.4285,N,00003.0046,W,1,05,02.4,1055.8,M,45.0,M,,*4F
$GPGSA,A,3,03,07,18,19,22,,,,,,,,3.3,2.4,2.3*30
$GPRMC,204325.000,A,5214.4285,N,00003.0046,W,24.18,107.23,170911,,,A*41
$GPVTG,107.23,T,,,24.18,N,44.79,K,A*76
$GPGGA,204326.000,5214.4255,N,00002.9948,W,1,05,02.4,1060.0,M,45.0,M,,*40
$GPGSV,2,1,08,03,89,276,30,07,63,181,22,11,,,,12,,,*79
$GPGSV,2.2,08,18,73,111,35,19,33,057,27,22,57,173,37,27,,,*40
$GPRMC,204326.000,A,5214.4255,N,00002.9948,W,24.18,107.23,170911,,,A*40
$GPVTG,107.23,T,,,24.18,N,44.79,K,A*76
$GPGGA,204327.000,5214.4225,N,00002.9851,W,1,05,02.4,1064.2,M,45.0,M,,*49
$GPRMC,204327.000,A,5214.4225,N,00002.9851,W,24.18,107.23,170911,,,A*4F
$GPVTG,107.23,T,,,24.18,N,44.79,K,A*76
$GPGGA,204328.000,5214.4194,N,00002.9753,W,1,05,02.4,1068.5,M,45.0,M,,*49
$GPGSA,A,3,03,07,18,19,22,,,,,,,,3.3,2.4,2.3*30
$GPRMC,204328.000,A,5214.4194,N,00002.9753,W,24.18,107.23,170911,,,A*44
$GPVTG,107.23,T,,,24.18,N,44.79,K,A*76
$GPGGA,204329.000,5214.4164,N,00002.9655,W,1,05,02.4,1072.8,M,45.0,M,,*46
$GPGSV,2,1,08,03,89,276,30,07,63,181,22,11,,,,12,,,*79
$GPGSV,2.2,08,18,73,111,35,19,33,057,27,22,57,173,37,27,,,*40
$GPRMC,204329.000,A,5214.4164,N,00002.9655,W,24.18,107.23,170911,,,A*4D
$GPVTG,107.23,T,,,24.18,N,44.79,K,A*76
$GPGGA,204330.000,5214.4134,N,00002.9557,W,1,05,02.4,1077.0,M,45.0,M,,*47
$GPRMC,204330.000,A,5214.4134,N,00002.9557,W,24.18,107.23,170911,,,A*41
$GPVTG,107.23,T,,,24.18,N,44.79,K,A*76
$GPGGA,204331.000,5214.4103,N,00002.9459,W,1,05,02.4,1081.2,M,45.0,M,,*46
$GPGSA,A,3,03,07,18,19,22,,,,,,,,3.3,2.4,2.3*30
$GPRMC,204331.000,A,5214.4103,N,00002.9459,W,24.18,107.23,170911,,,A*4B
$GPVTG,107.23,T,,,24.18,N,44.79,K,A*76
$GPGGA,204332.000,5214.4073,N,00002.9362,W,1,05,02.4,1085.5,M,45.0,M,,*4F
$GPGSV,2,1,08,03,89,276,30,07,63,181,22,11,,,,12,,,*79
$GPGSV,2.2,08,18,73,111,35,19,33,057,27,22,57,173,37,27,,,*40
$GPRMC,204332.000,A,5214.4073,N,00002.9362,W,24.18,107.23,170911,,,A*41
$GPVTG,107.23,T,,,24.18,N,44.79,K,A*76
$GPGGA,204333.000,5214.4043,N,00002.9264,W,1,05,02.4,1089.8,M,45.0,M,,*4B
$GPRMC,204333.000,A,5214.4043,N,00002.9264,W,24.18,107.23,170911,,,A*44
$GPVTG,107.23,T,,,24.18,N,44.79,K,A*76
$GPGGA,204334.000,5214.4012,N,00002.9166,W,1,05,02.4,1094.0,M,45.0,M,,*4D
$GPGSA,A,3,03,07,18,19,22,,,,,,,,3.3,2.4,2.3*30
$GPRMC,204334.000,A,5214.4012,N,00002.9166,W,25.16,105.88,170911,,,A*4A
$GPVTG,105.88,T,,,25.16,N,46.59,K,A*7A
$GPGGA,204335.000,5214.3983,N,00002.9063,W,1,05,02.4,1098.2,M,45.0,M,,*40
$GPGSV,2,1,08,03,89,276,30,07,63,181,22,11,,,,12,,,*79
$GPGSV,2.2,08,18,73,111,35,19,33,057,27,22,57,173,37,27,,,*40
$GPRMC,204335.000,A,5214.3983,N,00002.9063,W,25.16,105.88,170911,,,A*49
$GPVTG,105.88,T,,,25.16,N,46.59,K,A*7A
$GPGGA,204336.000,5214.3954,N,00002.8959,W,1,05,02.4,1102.5,M,45.0,M,,*4D
$GPRMC,204336.000,A,5214.3954,N,00002.8959,W,25.16,105.88,170911,,,A*41
$GPVTG,105.88,T,,,25.16,N,46.59,K,A*7A
$GPGGA,204337.000,5214.3924,N,00002.8856,W,1,05,02.4,1106.7,M,45.0,M,,*43
$GPGSA,A,3,03,07,18,19,22,,,,,,,,3.3,2.4,2.3*30
$GPRMC,204337.000,A,5214.3924,N,00002.8856,W,25.16,105.88,170911,,,A*49
$GPVTG,105.88,T,,,25.16,N,46.59,K,A*7A
