$GPRMC,125358.00,A,5157.01629,N,00232.66503,W,0.051,,280914,,,D*62
$GPGGA,125358.00,5157.01629,N,00232.66503,W,2,11,0.93,144.5,M,48.6,M,,0000*4E
$GPRMC,125359.00,A,5157.01629,N,00232.66506,W,0.118,,280914,,,D*6A
$GPGGA,125359.00,5157.01629,N,00232.66506,W,2,11,0.93,144.7,M,48.6,M,,0000*48
$GPRMC,125400.00,A,5157.01629,N,00232.66503,W,0.103,,280914,,,D*6E
$GPGGA,125400.00,5157.01629,N,00232.66503,W,2,11,0.93,144.8,M,48.6,M,,0000*49
$GPRMC,125401.00,A,5157.01630,N,00232.66501,W,0.131,,280914,,,D*64
$GPGGA,125401.00,5157.01630,N,00232.66501,W,2,11,0.93,144.8,M,48.6,M,,0000*42
$GPRMC,125402.00,A,5157.01627,N,00232.66501,W,0.044,,280914,,,D*62
$GNGGA,231516.00,5157.01411,N,00232.66531,W,2,12,0.86,137.2,M,48.6,M,,0000*56
$GNRMC,232051.00,A,5157.01541,N,00232.66494,W,0.054,,111014,,,D*76
$GNGGA,232051.00,5157.01541,N,00232.66494,W,2,12,0.85,143.6,M,48.6,M,,0000*5D
$GNRMC,232052.00,A,5157.01537,N,00232.66495,W,0.029,,111014,,,D*7F
$GNGGA,232052.00,5157.01537,N,00232.66495,W,2,12,0.85,143.4,M,48.6,M,,0000*5C
$GNRMC,232053.00,A,5157.01534,N,00232.66496,W,0.084,,111014,,,D*79
$GNGGA,232053.00,5157.01534,N,00232.66496,W,2,12,0.85,143.4,M,48.6,M,,0000*5D
$GNRMC,232054.00,A,5157.01529,N,00232.66499,W,0.100,,111014,,,D*70
$GNGGA,232054.00,5157.01529,N,00232.66499,W,2,12,0.85,143.3,M,48.6,M,,0000*5E
$GNRMC,232055.00,A,5157.01522,N,00232.66501,W,0.057,,111014,,,D*79
$GNGGA,232055.00,5157.01522,N,00232.66501,W,2,12,0.85,143.2,M,48.6,M,,0000*55
$GNGGA,232232.00,5157.01547,N,00232.66510,W,2,11,1.01,142.2,M,48.6,M,,0000*5A
$GNGGA,232233.00,5157.01548,N,00232.66513,W,2,11,1.01,142.0,M,48.6,M,,0000*55
$GNGGA,232234.00,5157.01548,N,00232.66516,W,2,11,1.01,142.0,M,48.6,M,,0000*57
$GNGGA,232235.00,5157.01551,N,00232.66519,W,2,11,1.01,141.8,M,48.6,M,,0000*5A
$GNGGA,232236.00,5157.01552,N,00232.66521,W,2,11,1.01,141.7,M,48.6,M,,0000*5E
$GNGGA,232237.00,5157.01554,N,00232.66524,W,2,11,1.01,141.4,M,48.6,M,,0000*5F
$GNGGA,232238.00,5157.01557,N,00232.66526,W,2,11,1.01,141.3,M,48.6,M,,0000*56
$GNGGA,232239.00,5157.01557,N,00232.66527,W,2,11,1.01,141.3,M,48.6,M,,0000*56
$GNGGA,232240.00,5157.01556,N,00232.66528,W,2,11,1.01,141.2,M,48.6,M,,0000*57
$GNGGA,232241.00,5157.01558,N,00232.66527,W,2,11,1.01,140.9,M,48.6,M,,0000*5D
$GNGGA,232242.00,5157.01560,N,00232.66529,W,2,11,1.01,140.8,M,48.6,M,,0000*5A
$GNGGA,232243.00,5157.01560,N,00232.66531,W,2,11,1.01,140.6,M,48.6,M,,0000*5C
$GNGGA,232244.00,5157.01558,N,00232.66534,W,2,11,1.01,140.3,M,48.6,M,,0000*50
$GNGGA,232245.00,5157.01560,N,00232.66536,W,2,11,1.01,140.0,M,48.6,M,,0000*5B
$GNGGA,232246.00,5157.01561,N,00232.66538,W,2,11,1.01,139.7,M,48.6,M,,0000*5E
$GNGGA,232247.00,5157.01559,N,00232.66542,W,2,11,1.01,139.5,M,48.6,M,,0000*5B
$GNGGA,232248.00,5157.01557,N,00232.66543,W,2,11,1.01,139.2,M,48.6,M,,0000*5C
$GNGGA,232249.00,5157.01557,N,00232.66544,W,2,11,1.01,139.0,M,48.6,M,,0000*58
$GNGGA,232250.00,5157.01557,N,00232.66545,W,2,11,1.00,138.6,M,48.6,M,,0000*57
$GNGGA,232251.00,5157.01554,N,00232.66547,W,2,11,1.00,138.3,M,48.6,M,,0000*52
$GNGGA,232252.00,5157.01553,N,00232.66546,W,2,12,0.92,138.2,M,48.6,M,,0000*5F
$GNGGA,232253.00,5157.01553,N,00232.66545,W,2,12,0.92,138.1,M,48.6,M,,0000*5E
$GNRMC,232301.00,A,5157.01548,N,00232.66547,W,0.060,,111014,,,D*71
$GNGGA,232301.00,5157.01548,N,00232.66547,W,2,12,0.92,138.1,M,48.6,M,,0000*50
$GNRMC,232302.00,A,5157.01548,N,00232.66547,W,0.026,,111014,,,D*70
$GNGGA,232302.00,5157.01548,N,00232.66547,W,2,12,0.92,138.1,M,48.6,M,,0000*53
$GNRMC,232303.00,A,5157.01548,N,00232.66546,W,0.010,,111014,,,D*75
$GNGGA,232303.00,5157.01548,N,00232.66546,W,2,12,0.92,138.2,M,48.6,M,,0000*50
$GNRMC,232304.00,A,5157.01549,N,00232.66546,W,0.041,,111014,,,D*77
$GNGGA,232304.00,5157.01549,N,00232.66546,W,2,12,0.92,138.3,M,48.6,M,,0000*57
$GNRMC,232305.00,A,5157.01551,N,00232.66546,W,0.012,,111014,,,D*79
$GNGGA,232305.00,5157.01551,N,00232.66546,W,2,12,0.92,138.4,M,48.6,M,,0000*58
$GNRMC,232306.00,A,5157.01556,N,00232.66544,W,0.106,,111014,,,D*7B
$GNGGA,232306.00,5157.01556,N,00232.66544,W,2,12,0.92,138.5,M,48.6,M,,0000*5F
$GNRMC,232310.00,A,5157.01572,N,00232.66539,W,0.052,,111014,,,D*70
$GNGGA,232310.00,5157.01572,N,00232.66539,W,2,12,0.92,139.2,M,48.6,M,,0000*52
$GNRMC,232311.00,A,5157.01576,N,00232.66538,W,0.089,,111014,,,D*72
$GNGGA,232311.00,5157.01576,N,00232.66538,W,2,12,0.92,139.3,M,48.6,M,,0000*57
$GNRMC,232312.00,A,5157.01576,N,00232.66538,W,0.113,,111014,,,D*73
$GNGGA,232312.00,5157.01576,N,00232.66538,W,2,12,0.92,139.4,M,48.6,M,,0000*53
$GNRMC,232313.00,A,5157.01577,N,00232.66536,W,0.023,,111014,,,D*7F
$GNGGA,232313.00,5157.01577,N,00232.66536,W,2,12,0.92,139.6,M,48.6,M,,0000*5F
$GNRMC,232314.00,A,5157.01579,N,00232.66534,W,0.034,,111014,,,D*72
$GNGGA,232314.00,5157.01579,N,00232.66534,W,2,12,0.92,139.8,M,48.6,M,,0000*5A
$GNRMC,232315.00,A,5157.01581,N,00232.66531,W,0.073,,111014,,,D*72
$GNGGA,232315.00,5157.01581,N,00232.66531,W,2,12,0.92,139.9,M,48.6,M,,0000*58
$GNRMC,232316.00,A,5157.01583,N,00232.66528,W,0.036,,111014,,,D*7A
$GNGGA,232316.00,5157.01583,N,00232.66528,W,2,12,0.92,140.1,M,48.6,M,,0000*57
$GNRMC,232317.00,A,5157.01583,N,00232.66528,W,0.034,,111014,,,D*79
$GNGGA,232317.00,5157.01583,N,00232.66528,W,2,12,0.92,140.2,M,48.6,M,,0000*55
$GNRMC,232318.00,A,5157.01583,N,00232.66527,W,0.036,,111014,,,D*7B
$GNGGA,232318.00,5157.01583,N,00232.66527,W,2,12,0.92,140.4,M,48.6,M,,0000*53
$GNRMC,232319.00,A,5157.01582,N,00232.66527,W,0.038,,111014,,,D*75
$GNGGA,232319.00,5157.01582,N,00232.66527,W,2,12,0.92,140.5,M,48.6,M,,0000*52
$GNRMC,232320.00,A,5157.01580,N,00232.66526,W,0.033,,111014,,,D*77
$GNGGA,232320.00,5157.01580,N,00232.66526,W,2,12,0.92,140.4,M,48.6,M,,0000*5A
$GNRMC,232321.00,A,5157.01577,N,00232.66525,W,0.109,,111014,,,D*75
$GNGGA,232321.00,5157.01577,N,00232.66525,W,2,12,0.92,140.5,M,48.6,M,,0000*51
$GNRMC,232322.00,A,5157.01574,N,00232.66523,W,0.033,,111014,,,D*7B
$GNGGA,232322.00,5157.01574,N,00232.66523,W,2,12,0.92,140.6,M,48.6,M,,0000*54
$GNRMC,232323.00,A,5157.01573,N,00232.66522,W,0.056,,111014,,,D*7F
$GNGGA,232323.00,5157.01573,N,00232.66522,W,2,12,1.00,140.8,M,48.6,M,,0000*57
$GNRMC,232324.00,A,5157.01575,N,00232.66519,W,0.165,,111014,,,D*77
$GNGGA,232324.00,5157.01575,N,00232.66519,W,2,12,1.00,140.8,M,48.6,M,,0000*5E
$GNRMC,232325.00,A,5157.01576,N,00232.66518,W,0.078,,111014,,,D*79
$GNGGA,232325.00,5157.01576,N,00232.66518,W,2,12,1.00,141.0,M,48.6,M,,0000*54
$GNRMC,232326.00,A,5157.01574,N,00232.66519,W,0.088,,111014,,,D*76
$GNGGA,232326.00,5157.01574,N,00232.66519,W,2,12,1.00,141.0,M,48.6,M,,0000*54
$GNRMC,232327.00,A,5157.01572,N,00232.66518,W,0.099,,111014,,,D*70
$GNGGA,232327.00,5157.01572,N,00232.66518,W,2,12,1.01,140.9,M,48.6,M,,0000*5B
$GNRMC,232328.00,A,5157.01570,N,00232.66516,W,0.036,,111014,,,D*76
$GNGGA,232328.00,5157.01570,N,00232.66516,W,2,12,1.01,140.8,M,48.6,M,,0000*59
$GNRMC,232329.00,A,5157.01569,N,00232.66514,W,0.022,,111014,,,D*78
$GNGGA,232329.00,5157.01569,N,00232.66514,W,2,12,1.01,140.7,M,48.6,M,,0000*5D
$GNRMC,232330.00,A,5157.01569,N,00232.66511,W,0.023,,111014,,,D*74
$GNGGA,232330.00,5157.01569,N,00232.66511,W,2,12,0.92,140.7,M,48.6,M,,0000*5B
$GNRMC,232331.00,A,5157.01571,N,00232.66509,W,0.075,,111014,,,D*76
